[
    {
   "results" : [
      {
         "address_components" : [
            {
               "long_name" : "London",
               "short_name" : "London",
               "types" : [ "locality", "political" ]
            },
            {
               "long_name" : "Greater London",
               "short_name" : "Gt Lon",
               "types" : [ "administrative_area_level_2", "political" ]
            },
            {
               "long_name" : "England",
               "short_name" : "England",
               "types" : [ "administrative_area_level_1", "political" ]
            },
            {
               "long_name" : "United Kingdom",
               "short_name" : "GB",
               "types" : [ "country", "political" ]
            }
         ],
         "formatted_address" : "London, UK",
         "geometry" : {
            "bounds" : {
               "northeast" : {
                  "lat" : 51.6723432,
                  "lng" : 0.148271
               },
               "southwest" : {
                  "lat" : 51.38494009999999,
                  "lng" : -0.3514683
               }
            },
            "location" : {
               "lat" : 51.5073509,
               "lng" : -0.1277583
            },
            "location_type" : "APPROXIMATE",
            "viewport" : {
               "northeast" : {
                  "lat" : 51.6723432,
                  "lng" : 0.148271
               },
               "southwest" : {
                  "lat" : 51.38494009999999,
                  "lng" : -0.3514683
               }
            }
         },
         "place_id" : "ChIJdd4hrwug2EcRmSrV3Vo6llI",
         "types" : [ "locality", "political" ]
      }
   ],
   "status" : "OK"
},
    
    
    {
	"results": [{
		"address_components": [{
			"long_name": "Saint Petersburg",
			"short_name": "СПБ",
			"types": ["locality", "political"]
		}, {
			"long_name": "gorod Sankt-Peterburg",
			"short_name": "g. Sankt-Peterburg",
			"types": ["administrative_area_level_2", "political"]
		}, {
			"long_name": "Saint Petersburg",
			"short_name": "Saint Petersburg",
			"types": ["administrative_area_level_1", "political"]
		}, {
			"long_name": "Russia",
			"short_name": "RU",
			"types": ["country", "political"]
		}],
		"formatted_address": "St Petersburg, Russia",
		"geometry": {
			"bounds": {
				"northeast": {
					"lat": 60.089675,
					"lng": 30.559783
				},
				"southwest": {
					"lat": 59.74521590000001,
					"lng": 30.090332
				}
			},
			"location": {
				"lat": 59.9342802,
				"lng": 30.3350986
			},
			"location_type": "APPROXIMATE",
			"viewport": {
				"northeast": {
					"lat": 60.089675,
					"lng": 30.559783
				},
				"southwest": {
					"lat": 59.74521590000001,
					"lng": 30.090332
				}
			}
		},
		"place_id": "ChIJ7WVKx4w3lkYR_46Eqz9nx20",
		"types": ["locality", "political"]
	}],
	"status": "OK"
}, 
    
    {
	"results": [{
		"address_components": [{
			"long_name": "Oraniyenbaumskaya Mel'",
			"short_name": "Oraniyenbaumskaya Mel'",
			"types": ["natural_feature", "establishment"]
		}, {
			"long_name": "Russia",
			"short_name": "RU",
			"types": ["country", "political"]
		}, {
			"long_name": "198412",
			"short_name": "198412",
			"types": ["postal_code"]
		}],
		"formatted_address": "Oraniyenbaumskaya Mel', Russia, 198412",
		"geometry": {
			"location": {
				"lat": 59.93333329999999,
				"lng": 29.7666667
			},
			"location_type": "APPROXIMATE",
			"viewport": {
				"northeast": {
					"lat": 59.9556867,
					"lng": 29.8306964
				},
				"southwest": {
					"lat": 59.9109648,
					"lng": 29.702637
				}
			}
		},
		"partial_match": true,
		"place_id": "ChIJ7bUHImpElkYRn30bNGJBp4Q",
		"types": ["natural_feature", "establishment"]
	}],
	"status": "OK"
}, {
	"results": [{
		"address_components": [{
			"long_name": "Peru",
			"short_name": "Peru",
			"types": ["locality", "political"]
		}, {
			"long_name": "Peru Township",
			"short_name": "Peru Township",
			"types": ["administrative_area_level_3", "political"]
		}, {
			"long_name": "Miami County",
			"short_name": "Miami County",
			"types": ["administrative_area_level_2", "political"]
		}, {
			"long_name": "Indiana",
			"short_name": "IN",
			"types": ["administrative_area_level_1", "political"]
		}, {
			"long_name": "United States",
			"short_name": "US",
			"types": ["country", "political"]
		}, {
			"long_name": "46970",
			"short_name": "46970",
			"types": ["postal_code"]
		}],
		"formatted_address": "Peru, IN 46970, USA",
		"geometry": {
			"bounds": {
				"northeast": {
					"lat": 40.7869989,
					"lng": -86.042211
				},
				"southwest": {
					"lat": 40.733768,
					"lng": -86.1354839
				}
			},
			"location": {
				"lat": 40.7536528,
				"lng": -86.0688811
			},
			"location_type": "APPROXIMATE",
			"viewport": {
				"northeast": {
					"lat": 40.7869989,
					"lng": -86.042211
				},
				"southwest": {
					"lat": 40.733768,
					"lng": -86.1354839
				}
			}
		},
		"place_id": "ChIJlzZmxjhoFIgRvUVtEEoeka4",
		"types": ["locality", "political"]
	}],
	"status": "OK"
}, 
    {
   "results" : [
      {
         "address_components" : [
            {
               "long_name" : "New Orleans",
               "short_name" : "New Orleans",
               "types" : [ "locality", "political" ]
            },
            {
               "long_name" : "Orleans Parish",
               "short_name" : "Orleans Parish",
               "types" : [ "administrative_area_level_2", "political" ]
            },
            {
               "long_name" : "Louisiana",
               "short_name" : "LA",
               "types" : [ "administrative_area_level_1", "political" ]
            },
            {
               "long_name" : "United States",
               "short_name" : "US",
               "types" : [ "country", "political" ]
            }
         ],
         "formatted_address" : "New Orleans, LA, USA",
         "geometry" : {
            "bounds" : {
               "northeast" : {
                  "lat" : 30.1748625,
                  "lng" : -89.62693109999999
               },
               "southwest" : {
                  "lat" : 29.8666609,
                  "lng" : -90.14007389999999
               }
            },
            "location" : {
               "lat" : 29.95106579999999,
               "lng" : -90.0715323
            },
            "location_type" : "APPROXIMATE",
            "viewport" : {
               "northeast" : {
                  "lat" : 30.1748625,
                  "lng" : -89.62693109999999
               },
               "southwest" : {
                  "lat" : 29.8666609,
                  "lng" : -90.14007389999999
               }
            }
         },
         "partial_match" : true,
         "place_id" : "ChIJZYIRslSkIIYRtNMiXuhbBts",
         "types" : [ "locality", "political" ]
      }
   ],
   "status" : "OK"
},
  {
   "results" : [
      {
         "address_components" : [
            {
               "long_name" : "Hungary",
               "short_name" : "HU",
               "types" : [ "country", "political" ]
            }
         ],
         "formatted_address" : "Hungary",
         "geometry" : {
            "bounds" : {
               "northeast" : {
                  "lat" : 48.585234,
                  "lng" : 22.8981217
               },
               "southwest" : {
                  "lat" : 45.7370889,
                  "lng" : 16.1133866
               }
            },
            "location" : {
               "lat" : 47.162494,
               "lng" : 19.503304
            },
            "location_type" : "APPROXIMATE",
            "viewport" : {
               "northeast" : {
                  "lat" : 48.585234,
                  "lng" : 22.8981217
               },
               "southwest" : {
                  "lat" : 45.7370889,
                  "lng" : 16.1133866
               }
            }
         },
         "place_id" : "ChIJw-Q333uDQUcREBAeDCnEAAA",
         "types" : [ "country", "political" ]
      }
   ],
   "status" : "OK"
},
    
    {
	"results": [{
		"address_components": [{
			"long_name": "Mooringsport",
			"short_name": "Mooringsport",
			"types": ["locality", "political"]
		}, {
			"long_name": "1",
			"short_name": "1",
			"types": ["administrative_area_level_3", "political"]
		}, {
			"long_name": "Caddo Parish",
			"short_name": "Caddo Parish",
			"types": ["administrative_area_level_2", "political"]
		}, {
			"long_name": "Louisiana",
			"short_name": "LA",
			"types": ["administrative_area_level_1", "political"]
		}, {
			"long_name": "United States",
			"short_name": "US",
			"types": ["country", "political"]
		}, {
			"long_name": "71060",
			"short_name": "71060",
			"types": ["postal_code"]
		}],
		"formatted_address": "Mooringsport, LA 71060, USA",
		"geometry": {
			"bounds": {
				"northeast": {
					"lat": 32.6971779,
					"lng": -93.952333
				},
				"southwest": {
					"lat": 32.670015,
					"lng": -93.97119510000002
				}
			},
			"location": {
				"lat": 32.6876455,
				"lng": -93.96101499999999
			},
			"location_type": "APPROXIMATE",
			"viewport": {
				"northeast": {
					"lat": 32.6971779,
					"lng": -93.952333
				},
				"southwest": {
					"lat": 32.670015,
					"lng": -93.97119510000002
				}
			}
		},
		"place_id": "ChIJTfJREuy4NoYRf_q0ggTXImU",
		"types": ["locality", "political"]
	}],
	"status": "OK"
}, 

        {
   "results" : [
      {
         "address_components" : [
            {
               "long_name" : "New Orleans",
               "short_name" : "New Orleans",
               "types" : [ "locality", "political" ]
            },
            {
               "long_name" : "Orleans Parish",
               "short_name" : "Orleans Parish",
               "types" : [ "administrative_area_level_2", "political" ]
            },
            {
               "long_name" : "Louisiana",
               "short_name" : "LA",
               "types" : [ "administrative_area_level_1", "political" ]
            },
            {
               "long_name" : "United States",
               "short_name" : "US",
               "types" : [ "country", "political" ]
            }
         ],
         "formatted_address" : "New Orleans, LA, USA",
         "geometry" : {
            "bounds" : {
               "northeast" : {
                  "lat" : 30.1748625,
                  "lng" : -89.62693109999999
               },
               "southwest" : {
                  "lat" : 29.8666609,
                  "lng" : -90.14007389999999
               }
            },
            "location" : {
               "lat" : 29.95106579999999,
               "lng" : -90.0715323
            },
            "location_type" : "APPROXIMATE",
            "viewport" : {
               "northeast" : {
                  "lat" : 30.1748625,
                  "lng" : -89.62693109999999
               },
               "southwest" : {
                  "lat" : 29.8666609,
                  "lng" : -90.14007389999999
               }
            }
         },
         "partial_match" : true,
         "place_id" : "ChIJZYIRslSkIIYRtNMiXuhbBts",
         "types" : [ "locality", "political" ]
      }
   ],
   "status" : "OK"
},
    
    {
   "results" : [
      {
         "address_components" : [
            {
               "long_name" : "Texas",
               "short_name" : "TX",
               "types" : [ "administrative_area_level_1", "political" ]
            },
            {
               "long_name" : "United States",
               "short_name" : "US",
               "types" : [ "country", "political" ]
            }
         ],
         "formatted_address" : "Texas, USA",
         "geometry" : {
            "bounds" : {
               "northeast" : {
                  "lat" : 36.5007041,
                  "lng" : -93.5080389
               },
               "southwest" : {
                  "lat" : 25.8371638,
                  "lng" : -106.6456461
               }
            },
            "location" : {
               "lat" : 31.9685988,
               "lng" : -99.9018131
            },
            "location_type" : "APPROXIMATE",
            "viewport" : {
               "northeast" : {
                  "lat" : 36.5015087,
                  "lng" : -93.5080389
               },
               "southwest" : {
                  "lat" : 25.8371638,
                  "lng" : -106.6456461
               }
            }
         },
         "place_id" : "ChIJSTKCCzZwQIYRPN4IGI8c6xY",
         "types" : [ "administrative_area_level_1", "political" ]
      }
   ],
   "status" : "OK"
},
       {
	"results": [{
		"address_components": [{
			"long_name": "Omaha",
			"short_name": "Omaha",
			"types": ["locality", "political"]
		}, {
			"long_name": "Douglas County",
			"short_name": "Douglas County",
			"types": ["administrative_area_level_2", "political"]
		}, {
			"long_name": "Nebraska",
			"short_name": "NE",
			"types": ["administrative_area_level_1", "political"]
		}, {
			"long_name": "United States",
			"short_name": "US",
			"types": ["country", "political"]
		}],
		"formatted_address": "Omaha, NE, USA",
		"geometry": {
			"bounds": {
				"northeast": {
					"lat": 41.39317,
					"lng": -95.871141
				},
				"southwest": {
					"lat": 41.1905479,
					"lng": -96.2913561
				}
			},
			"location": {
				"lat": 41.2523634,
				"lng": -95.99798829999999
			},
			"location_type": "APPROXIMATE",
			"viewport": {
				"northeast": {
					"lat": 41.39317,
					"lng": -95.871141
				},
				"southwest": {
					"lat": 41.1905479,
					"lng": -96.2913561
				}
			}
		},
		"place_id": "ChIJ7fwMtciNk4cRBLY3rk9NQkY",
		"types": ["locality", "political"]
	}],
	"status": "OK"
},
    
    {
   "results" : [
      {
         "address_components" : [
            {
               "long_name" : "New Orleans",
               "short_name" : "New Orleans",
               "types" : [ "locality", "political" ]
            },
            {
               "long_name" : "Orleans Parish",
               "short_name" : "Orleans Parish",
               "types" : [ "administrative_area_level_2", "political" ]
            },
            {
               "long_name" : "Louisiana",
               "short_name" : "LA",
               "types" : [ "administrative_area_level_1", "political" ]
            },
            {
               "long_name" : "United States",
               "short_name" : "US",
               "types" : [ "country", "political" ]
            }
         ],
         "formatted_address" : "New Orleans, LA, USA",
         "geometry" : {
            "bounds" : {
               "northeast" : {
                  "lat" : 30.1748625,
                  "lng" : -89.62693109999999
               },
               "southwest" : {
                  "lat" : 29.8666609,
                  "lng" : -90.14007389999999
               }
            },
            "location" : {
               "lat" : 29.95106579999999,
               "lng" : -90.0715323
            },
            "location_type" : "APPROXIMATE",
            "viewport" : {
               "northeast" : {
                  "lat" : 30.1748625,
                  "lng" : -89.62693109999999
               },
               "southwest" : {
                  "lat" : 29.8666609,
                  "lng" : -90.14007389999999
               }
            }
         },
         "partial_match" : true,
         "place_id" : "ChIJZYIRslSkIIYRtNMiXuhbBts",
         "types" : [ "locality", "political" ]
      }
   ],
   "status" : "OK"
},
    
        {
   "results" : [
      {
         "address_components" : [
            {
               "long_name" : "Washington",
               "short_name" : "D.C.",
               "types" : [ "locality", "political" ]
            },
            {
               "long_name" : "District of Columbia",
               "short_name" : "District of Columbia",
               "types" : [ "administrative_area_level_2", "political" ]
            },
            {
               "long_name" : "District of Columbia",
               "short_name" : "DC",
               "types" : [ "administrative_area_level_1", "political" ]
            },
            {
               "long_name" : "United States",
               "short_name" : "US",
               "types" : [ "country", "political" ]
            }
         ],
         "formatted_address" : "Washington, DC, USA",
         "geometry" : {
            "bounds" : {
               "northeast" : {
                  "lat" : 38.995548,
                  "lng" : -76.90939299999999
               },
               "southwest" : {
                  "lat" : 38.8031495,
                  "lng" : -77.11973999999999
               }
            },
            "location" : {
               "lat" : 38.9071923,
               "lng" : -77.03687069999999
            },
            "location_type" : "APPROXIMATE",
            "viewport" : {
               "northeast" : {
                  "lat" : 38.995548,
                  "lng" : -76.90939299999999
               },
               "southwest" : {
                  "lat" : 38.8031495,
                  "lng" : -77.11973999999999
               }
            }
         },
         "place_id" : "ChIJW-T2Wt7Gt4kRKl2I1CJFUsI",
         "types" : [ "locality", "political" ]
      },
      {
         "address_components" : [
            {
               "long_name" : "District of Columbia",
               "short_name" : "DC",
               "types" : [ "administrative_area_level_1", "political" ]
            },
            {
               "long_name" : "United States",
               "short_name" : "US",
               "types" : [ "country", "political" ]
            }
         ],
         "formatted_address" : "District of Columbia, USA",
         "geometry" : {
            "bounds" : {
               "northeast" : {
                  "lat" : 38.995548,
                  "lng" : -76.90939299999999
               },
               "southwest" : {
                  "lat" : 38.8031495,
                  "lng" : -77.11973999999999
               }
            },
            "location" : {
               "lat" : 38.9059849,
               "lng" : -77.03341790000002
            },
            "location_type" : "APPROXIMATE",
            "viewport" : {
               "northeast" : {
                  "lat" : 38.995548,
                  "lng" : -76.90939299999999
               },
               "southwest" : {
                  "lat" : 38.8031495,
                  "lng" : -77.11973999999999
               }
            }
         },
         "place_id" : "ChIJW-T2Wt7Gt4kRmKFUAsCO4tY",
         "types" : [ "administrative_area_level_1", "political" ]
      }
   ],
   "status" : "OK"
} ,
    
    {
   "results" : [
      {
         "address_components" : [
            {
               "long_name" : "India",
               "short_name" : "IN",
               "types" : [ "country", "political" ]
            }
         ],
         "formatted_address" : "India",
         "geometry" : {
            "bounds" : {
               "northeast" : {
                  "lat" : 35.5087008,
                  "lng" : 97.395561
               },
               "southwest" : {
                  "lat" : 6.7535159,
                  "lng" : 68.1623859
               }
            },
            "location" : {
               "lat" : 20.593684,
               "lng" : 78.96288
            },
            "location_type" : "APPROXIMATE",
            "viewport" : {
               "northeast" : {
                  "lat" : 35.5087008,
                  "lng" : 97.395561
               },
               "southwest" : {
                  "lat" : 6.7535159,
                  "lng" : 68.16288519999999
               }
            }
         },
         "place_id" : "ChIJkbeSa_BfYzARphNChaFPjNc",
         "types" : [ "country", "political" ]
      }
   ],
   "status" : "OK"
},
    {
   "results" : [
      {
         "address_components" : [
            {
               "long_name" : "Buenos Aires",
               "short_name" : "CABA",
               "types" : [ "locality", "political" ]
            },
            {
               "long_name" : "Autonomous City of Buenos Aires",
               "short_name" : "CABA",
               "types" : [ "administrative_area_level_1", "political" ]
            },
            {
               "long_name" : "Argentina",
               "short_name" : "AR",
               "types" : [ "country", "political" ]
            }
         ],
         "formatted_address" : "Buenos Aires, Autonomous City of Buenos Aires, Argentina",
         "geometry" : {
            "bounds" : {
               "northeast" : {
                  "lat" : -34.5265464,
                  "lng" : -58.33518840000001
               },
               "southwest" : {
                  "lat" : -34.7051011,
                  "lng" : -58.5314522
               }
            },
            "location" : {
               "lat" : -34.6036844,
               "lng" : -58.3815591
            },
            "location_type" : "APPROXIMATE",
            "viewport" : {
               "northeast" : {
                  "lat" : -34.5265464,
                  "lng" : -58.33518840000001
               },
               "southwest" : {
                  "lat" : -34.7051011,
                  "lng" : -58.5314522
               }
            }
         },
         "partial_match" : true,
         "place_id" : "ChIJvQz5TjvKvJURh47oiC6Bs6A",
         "types" : [ "locality", "political" ]
      }
   ],
   "status" : "OK"
},
        {
   "results" : [
      {
         "address_components" : [
            {
               "long_name" : "Cotton Plant",
               "short_name" : "Cotton Plant",
               "types" : [ "locality", "political" ]
            },
            {
               "long_name" : "Cotton Plant Township",
               "short_name" : "Cotton Plant Township",
               "types" : [ "administrative_area_level_3", "political" ]
            },
            {
               "long_name" : "Woodruff County",
               "short_name" : "Woodruff County",
               "types" : [ "administrative_area_level_2", "political" ]
            },
            {
               "long_name" : "Arkansas",
               "short_name" : "AR",
               "types" : [ "administrative_area_level_1", "political" ]
            },
            {
               "long_name" : "United States",
               "short_name" : "US",
               "types" : [ "country", "political" ]
            },
            {
               "long_name" : "72036",
               "short_name" : "72036",
               "types" : [ "postal_code" ]
            }
         ],
         "formatted_address" : "Cotton Plant, AR 72036, USA",
         "geometry" : {
            "bounds" : {
               "northeast" : {
                  "lat" : 35.014339,
                  "lng" : -91.2434289
               },
               "southwest" : {
                  "lat" : 34.998478,
                  "lng" : -91.2624589
               }
            },
            "location" : {
               "lat" : 35.0081476,
               "lng" : -91.2512373
            },
            "location_type" : "APPROXIMATE",
            "viewport" : {
               "northeast" : {
                  "lat" : 35.014339,
                  "lng" : -91.2434289
               },
               "southwest" : {
                  "lat" : 34.998478,
                  "lng" : -91.2624589
               }
            }
         },
         "partial_match" : true,
         "place_id" : "ChIJ820lVh5j04cRy6BVPXuY8wc",
         "types" : [ "locality", "political" ]
      }
   ],
   "status" : "OK"
},
    {
   "results" : [
      {
         "address_components" : [
            {
               "long_name" : "Saltash",
               "short_name" : "Saltash",
               "types" : [ "locality", "political" ]
            },
            {
               "long_name" : "Saltash",
               "short_name" : "Saltash",
               "types" : [ "administrative_area_level_4", "political" ]
            },
            {
               "long_name" : "Cornwall",
               "short_name" : "Cnwll",
               "types" : [ "administrative_area_level_2", "political" ]
            },
            {
               "long_name" : "England",
               "short_name" : "England",
               "types" : [ "administrative_area_level_1", "political" ]
            },
            {
               "long_name" : "United Kingdom",
               "short_name" : "GB",
               "types" : [ "country", "political" ]
            }
         ],
         "formatted_address" : "Saltash, Cornwall, UK",
         "geometry" : {
            "bounds" : {
               "northeast" : {
                  "lat" : 50.42311249999999,
                  "lng" : -4.2031708
               },
               "southwest" : {
                  "lat" : 50.3998618,
                  "lng" : -4.2497111
               }
            },
            "location" : {
               "lat" : 50.40920999999999,
               "lng" : -4.21643
            },
            "location_type" : "APPROXIMATE",
            "viewport" : {
               "northeast" : {
                  "lat" : 50.42311249999999,
                  "lng" : -4.2031708
               },
               "southwest" : {
                  "lat" : 50.3998618,
                  "lng" : -4.2497111
               }
            }
         },
         "place_id" : "ChIJ4WjsCk-FbEgR7laTtytfzPI",
         "types" : [ "locality", "political" ]
      }
   ],
   "status" : "OK"
},
    {
   "results" : [
      {
         "address_components" : [
            {
               "long_name" : "Chattanooga",
               "short_name" : "Chattanooga",
               "types" : [ "locality", "political" ]
            },
            {
               "long_name" : "Hamilton County",
               "short_name" : "Hamilton County",
               "types" : [ "administrative_area_level_2", "political" ]
            },
            {
               "long_name" : "Tennessee",
               "short_name" : "TN",
               "types" : [ "administrative_area_level_1", "political" ]
            },
            {
               "long_name" : "United States",
               "short_name" : "US",
               "types" : [ "country", "political" ]
            }
         ],
         "formatted_address" : "Chattanooga, TN, USA",
         "geometry" : {
            "bounds" : {
               "northeast" : {
                  "lat" : 35.2136671,
                  "lng" : -85.0517979
               },
               "southwest" : {
                  "lat" : 34.9829239,
                  "lng" : -85.425584
               }
            },
            "location" : {
               "lat" : 35.0456297,
               "lng" : -85.30968009999999
            },
            "location_type" : "APPROXIMATE",
            "viewport" : {
               "northeast" : {
                  "lat" : 35.2136671,
                  "lng" : -85.0517979
               },
               "southwest" : {
                  "lat" : 34.9829239,
                  "lng" : -85.425584
               }
            }
         },
         "place_id" : "ChIJheeDikBgYIgRqiiHiR8mcSQ",
         "types" : [ "locality", "political" ]
      },
      {
         "address_components" : [
            {
               "long_name" : "Chattanooga",
               "short_name" : "Chattanooga",
               "types" : [ "locality", "political" ]
            },
            {
               "long_name" : "Comanche County",
               "short_name" : "Comanche County",
               "types" : [ "administrative_area_level_2", "political" ]
            },
            {
               "long_name" : "Oklahoma",
               "short_name" : "OK",
               "types" : [ "administrative_area_level_1", "political" ]
            },
            {
               "long_name" : "United States",
               "short_name" : "US",
               "types" : [ "country", "political" ]
            },
            {
               "long_name" : "73528",
               "short_name" : "73528",
               "types" : [ "postal_code" ]
            }
         ],
         "formatted_address" : "Chattanooga, OK 73528, USA",
         "geometry" : {
            "bounds" : {
               "northeast" : {
                  "lat" : 34.4286119,
                  "lng" : -98.6467519
               },
               "southwest" : {
                  "lat" : 34.4196071,
                  "lng" : -98.6645769
               }
            },
            "location" : {
               "lat" : 34.4228593,
               "lng" : -98.65645219999999
            },
            "location_type" : "APPROXIMATE",
            "viewport" : {
               "northeast" : {
                  "lat" : 34.4286119,
                  "lng" : -98.6467519
               },
               "southwest" : {
                  "lat" : 34.4196071,
                  "lng" : -98.6645769
               }
            }
         },
         "place_id" : "ChIJ_zi49ynbrIcRv4udZXn4nlc",
         "types" : [ "locality", "political" ]
      }
   ],
   "status" : "OK"
},
    {
   "results" : [
      {
         "address_components" : [
            {
               "long_name" : "Rio de Janeiro",
               "short_name" : "Rio de Janeiro",
               "types" : [ "locality", "political" ]
            },
            {
               "long_name" : "Rio de Janeiro",
               "short_name" : "Rio de Janeiro",
               "types" : [ "administrative_area_level_2", "political" ]
            },
            {
               "long_name" : "State of Rio de Janeiro",
               "short_name" : "RJ",
               "types" : [ "administrative_area_level_1", "political" ]
            },
            {
               "long_name" : "Brazil",
               "short_name" : "BR",
               "types" : [ "country", "political" ]
            }
         ],
         "formatted_address" : "Rio de Janeiro, Rio de Janeiro - State of Rio de Janeiro, Brazil",
         "geometry" : {
            "bounds" : {
               "northeast" : {
                  "lat" : -22.7461201,
                  "lng" : -43.1016081
               },
               "southwest" : {
                  "lat" : -23.0763469,
                  "lng" : -43.7950599
               }
            },
            "location" : {
               "lat" : -22.9068467,
               "lng" : -43.1728965
            },
            "location_type" : "APPROXIMATE",
            "viewport" : {
               "northeast" : {
                  "lat" : -22.7461201,
                  "lng" : -43.1016081
               },
               "southwest" : {
                  "lat" : -23.0763469,
                  "lng" : -43.7950599
               }
            }
         },
         "place_id" : "ChIJW6AIkVXemwARTtIvZ2xC3FA",
         "types" : [ "locality", "political" ]
      },
      {
         "address_components" : [
            {
               "long_name" : "Rio de Janeiro",
               "short_name" : "Rio de Janeiro",
               "types" : [ "administrative_area_level_4", "political" ]
            },
            {
               "long_name" : "Rio de Janeiro",
               "short_name" : "Rio de Janeiro",
               "types" : [ "administrative_area_level_2", "political" ]
            },
            {
               "long_name" : "Rio de Janeiro",
               "short_name" : "RJ",
               "types" : [ "administrative_area_level_1", "political" ]
            },
            {
               "long_name" : "Brazil",
               "short_name" : "BR",
               "types" : [ "country", "political" ]
            },
            {
               "long_name" : "20211",
               "short_name" : "20211",
               "types" : [ "postal_code_prefix", "postal_code" ]
            }
         ],
         "formatted_address" : "Rio de Janeiro, Rio de Janeiro - RJ, Brazil",
         "geometry" : {
            "location" : {
               "lat" : -22.9133954,
               "lng" : -43.20071009999999
            },
            "location_type" : "APPROXIMATE",
            "viewport" : {
               "northeast" : {
                  "lat" : -22.9120464197085,
                  "lng" : -43.1993611197085
               },
               "southwest" : {
                  "lat" : -22.9147443802915,
                  "lng" : -43.2020590802915
               }
            }
         },
         "place_id" : "ChIJK2AjMAl_mQARPFeMWcqfZdI",
         "types" : [ "administrative_area_level_4", "political" ]
      }
   ],
   "status" : "OK"
},
    {
   "results" : [
      {
         "address_components" : [
            {
               "long_name" : "Munich",
               "short_name" : "M",
               "types" : [ "locality", "political" ]
            },
            {
               "long_name" : "Upper Bavaria",
               "short_name" : "Upper Bavaria",
               "types" : [ "administrative_area_level_2", "political" ]
            },
            {
               "long_name" : "Bavaria",
               "short_name" : "BY",
               "types" : [ "administrative_area_level_1", "political" ]
            },
            {
               "long_name" : "Germany",
               "short_name" : "DE",
               "types" : [ "country", "political" ]
            }
         ],
         "formatted_address" : "Munich, Germany",
         "geometry" : {
            "bounds" : {
               "northeast" : {
                  "lat" : 48.2482197,
                  "lng" : 11.7228755
               },
               "southwest" : {
                  "lat" : 48.0616018,
                  "lng" : 11.360796
               }
            },
            "location" : {
               "lat" : 48.1351253,
               "lng" : 11.5819806
            },
            "location_type" : "APPROXIMATE",
            "viewport" : {
               "northeast" : {
                  "lat" : 48.2482197,
                  "lng" : 11.7228755
               },
               "southwest" : {
                  "lat" : 48.0616018,
                  "lng" : 11.360796
               }
            }
         },
         "place_id" : "ChIJ2V-Mo_l1nkcRfZixfUq4DAE",
         "types" : [ "locality", "political" ]
      }
   ],
   "status" : "OK"
},
    {
   "results" : [
      {
         "address_components" : [
            {
               "long_name" : "New York",
               "short_name" : "NY",
               "types" : [ "locality", "political" ]
            },
            {
               "long_name" : "New York",
               "short_name" : "NY",
               "types" : [ "administrative_area_level_1", "political" ]
            },
            {
               "long_name" : "United States",
               "short_name" : "US",
               "types" : [ "country", "political" ]
            }
         ],
         "formatted_address" : "New York, NY, USA",
         "geometry" : {
            "bounds" : {
               "northeast" : {
                  "lat" : 40.91525559999999,
                  "lng" : -73.70027209999999
               },
               "southwest" : {
                  "lat" : 40.4960439,
                  "lng" : -74.25573489999999
               }
            },
            "location" : {
               "lat" : 40.7127837,
               "lng" : -74.0059413
            },
            "location_type" : "APPROXIMATE",
            "viewport" : {
               "northeast" : {
                  "lat" : 40.91525559999999,
                  "lng" : -73.70027209999999
               },
               "southwest" : {
                  "lat" : 40.4960439,
                  "lng" : -74.25573489999999
               }
            }
         },
         "place_id" : "ChIJOwg_06VPwokRYv534QaPC8g",
         "types" : [ "locality", "political" ]
      },
      {
         "address_components" : [
            {
               "long_name" : "New York",
               "short_name" : "New York",
               "types" : [ "locality", "political" ]
            },
            {
               "long_name" : "Union",
               "short_name" : "Union",
               "types" : [ "administrative_area_level_3", "political" ]
            },
            {
               "long_name" : "Wayne County",
               "short_name" : "Wayne County",
               "types" : [ "administrative_area_level_2", "political" ]
            },
            {
               "long_name" : "Iowa",
               "short_name" : "IA",
               "types" : [ "administrative_area_level_1", "political" ]
            },
            {
               "long_name" : "United States",
               "short_name" : "US",
               "types" : [ "country", "political" ]
            },
            {
               "long_name" : "50238",
               "short_name" : "50238",
               "types" : [ "postal_code" ]
            }
         ],
         "formatted_address" : "New York, IA 50238, USA",
         "geometry" : {
            "location" : {
               "lat" : 40.8516701,
               "lng" : -93.25993179999999
            },
            "location_type" : "APPROXIMATE",
            "viewport" : {
               "northeast" : {
                  "lat" : 40.8530190802915,
                  "lng" : -93.25858281970848
               },
               "southwest" : {
                  "lat" : 40.8503211197085,
                  "lng" : -93.2612807802915
               }
            }
         },
         "place_id" : "ChIJD_qB3F8X6YcRDraFbXmLUD4",
         "types" : [ "locality", "political" ]
      }
   ],
   "status" : "OK"
},
 {
   "results" : [
      {
         "address_components" : [
            {
               "long_name" : "Tacoma",
               "short_name" : "Tacoma",
               "types" : [ "locality", "political" ]
            },
            {
               "long_name" : "Pierce County",
               "short_name" : "Pierce County",
               "types" : [ "administrative_area_level_2", "political" ]
            },
            {
               "long_name" : "Washington",
               "short_name" : "WA",
               "types" : [ "administrative_area_level_1", "political" ]
            },
            {
               "long_name" : "United States",
               "short_name" : "US",
               "types" : [ "country", "political" ]
            }
         ],
         "formatted_address" : "Tacoma, WA, USA",
         "geometry" : {
            "bounds" : {
               "northeast" : {
                  "lat" : 47.3190031,
                  "lng" : -122.3482139
               },
               "southwest" : {
                  "lat" : 47.166528,
                  "lng" : -122.562265
               }
            },
            "location" : {
               "lat" : 47.2528768,
               "lng" : -122.4442906
            },
            "location_type" : "APPROXIMATE",
            "viewport" : {
               "northeast" : {
                  "lat" : 47.3190031,
                  "lng" : -122.3482139
               },
               "southwest" : {
                  "lat" : 47.166528,
                  "lng" : -122.562265
               }
            }
         },
         "place_id" : "ChIJZ5VlK-5UkFQRgp6w6wecIWI",
         "types" : [ "locality", "political" ]
      }
   ],
   "status" : "OK"
},
    {
   "results" : [
      {
         "address_components" : [
            {
               "long_name" : "Red Bank",
               "short_name" : "Red Bank",
               "types" : [ "locality", "political" ]
            },
            {
               "long_name" : "Monmouth County",
               "short_name" : "Monmouth County",
               "types" : [ "administrative_area_level_2", "political" ]
            },
            {
               "long_name" : "New Jersey",
               "short_name" : "NJ",
               "types" : [ "administrative_area_level_1", "political" ]
            },
            {
               "long_name" : "United States",
               "short_name" : "US",
               "types" : [ "country", "political" ]
            }
         ],
         "formatted_address" : "Red Bank, NJ, USA",
         "geometry" : {
            "bounds" : {
               "northeast" : {
                  "lat" : 40.3595028,
                  "lng" : -74.04989089999999
               },
               "southwest" : {
                  "lat" : 40.3362489,
                  "lng" : -74.090631
               }
            },
            "location" : {
               "lat" : 40.3470543,
               "lng" : -74.0643065
            },
            "location_type" : "APPROXIMATE",
            "viewport" : {
               "northeast" : {
                  "lat" : 40.3595028,
                  "lng" : -74.04989089999999
               },
               "southwest" : {
                  "lat" : 40.3362489,
                  "lng" : -74.090631
               }
            }
         },
         "place_id" : "ChIJ_3JyOAUuwokRLxq8r2nvPcY",
         "types" : [ "locality", "political" ]
      },
      {
         "address_components" : [
            {
               "long_name" : "Red Bank",
               "short_name" : "Red Bank",
               "types" : [ "locality", "political" ]
            },
            {
               "long_name" : "Hamilton County",
               "short_name" : "Hamilton County",
               "types" : [ "administrative_area_level_2", "political" ]
            },
            {
               "long_name" : "Tennessee",
               "short_name" : "TN",
               "types" : [ "administrative_area_level_1", "political" ]
            },
            {
               "long_name" : "United States",
               "short_name" : "US",
               "types" : [ "country", "political" ]
            }
         ],
         "formatted_address" : "Red Bank, TN, USA",
         "geometry" : {
            "bounds" : {
               "northeast" : {
                  "lat" : 35.14668899999999,
                  "lng" : -85.2615199
               },
               "southwest" : {
                  "lat" : 35.074473,
                  "lng" : -85.3274579
               }
            },
            "location" : {
               "lat" : 35.1122945,
               "lng" : -85.2941251
            },
            "location_type" : "APPROXIMATE",
            "viewport" : {
               "northeast" : {
                  "lat" : 35.14668899999999,
                  "lng" : -85.2615199
               },
               "southwest" : {
                  "lat" : 35.074473,
                  "lng" : -85.3274579
               }
            }
         },
         "place_id" : "ChIJ_XJc0pJfYIgRfjVpJVvrUu4",
         "types" : [ "locality", "political" ]
      }
   ],
   "status" : "OK"
},
    {
   "results" : [
      {
         "address_components" : [
            {
               "long_name" : "Liberchies",
               "short_name" : "Liberchies",
               "types" : [ "sublocality_level_1", "sublocality", "political" ]
            },
            {
               "long_name" : "Pont-à-Celles",
               "short_name" : "Pont-a-Celles",
               "types" : [ "locality", "political" ]
            },
            {
               "long_name" : "Hainaut",
               "short_name" : "HT",
               "types" : [ "administrative_area_level_2", "political" ]
            },
            {
               "long_name" : "Walloon Region",
               "short_name" : "Walloon Region",
               "types" : [ "administrative_area_level_1", "political" ]
            },
            {
               "long_name" : "Belgium",
               "short_name" : "BE",
               "types" : [ "country", "political" ]
            },
            {
               "long_name" : "6238",
               "short_name" : "6238",
               "types" : [ "postal_code" ]
            }
         ],
         "formatted_address" : "Liberchies, 6238 Pont-a-Celles, Belgium",
         "geometry" : {
            "location" : {
               "lat" : 50.51381569999999,
               "lng" : 4.421520300000001
            },
            "location_type" : "APPROXIMATE",
            "viewport" : {
               "northeast" : {
                  "lat" : 50.52091040000001,
                  "lng" : 4.4375277
               },
               "southwest" : {
                  "lat" : 50.50671990000001,
                  "lng" : 4.4055129
               }
            }
         },
         "place_id" : "ChIJ8ZfEEScswkcRAKcVAG3079k",
         "types" : [ "sublocality_level_1", "sublocality", "political" ]
      }
   ],
   "status" : "OK"
},
    {
   "results" : [
      {
         "address_components" : [
            {
               "long_name" : "Saint Petersburg",
               "short_name" : "СПБ",
               "types" : [ "locality", "political" ]
            },
            {
               "long_name" : "gorod Sankt-Peterburg",
               "short_name" : "g. Sankt-Peterburg",
               "types" : [ "administrative_area_level_2", "political" ]
            },
            {
               "long_name" : "Saint Petersburg",
               "short_name" : "Saint Petersburg",
               "types" : [ "administrative_area_level_1", "political" ]
            },
            {
               "long_name" : "Russia",
               "short_name" : "RU",
               "types" : [ "country", "political" ]
            }
         ],
         "formatted_address" : "St Petersburg, Russia",
         "geometry" : {
            "bounds" : {
               "northeast" : {
                  "lat" : 60.089675,
                  "lng" : 30.559783
               },
               "southwest" : {
                  "lat" : 59.74521590000001,
                  "lng" : 30.090332
               }
            },
            "location" : {
               "lat" : 59.9342802,
               "lng" : 30.3350986
            },
            "location_type" : "APPROXIMATE",
            "viewport" : {
               "northeast" : {
                  "lat" : 60.089675,
                  "lng" : 30.559783
               },
               "southwest" : {
                  "lat" : 59.74521590000001,
                  "lng" : 30.090332
               }
            }
         },
         "place_id" : "ChIJ7WVKx4w3lkYR_46Eqz9nx20",
         "types" : [ "locality", "political" ]
      }
   ],
   "status" : "OK"
},
    {
   "results" : [
      {
         "address_components" : [
            {
               "long_name" : "Chicago",
               "short_name" : "Chgo",
               "types" : [ "locality", "political" ]
            },
            {
               "long_name" : "Cook County",
               "short_name" : "Cook County",
               "types" : [ "administrative_area_level_2", "political" ]
            },
            {
               "long_name" : "Illinois",
               "short_name" : "IL",
               "types" : [ "administrative_area_level_1", "political" ]
            },
            {
               "long_name" : "United States",
               "short_name" : "US",
               "types" : [ "country", "political" ]
            }
         ],
         "formatted_address" : "Chicago, IL, USA",
         "geometry" : {
            "bounds" : {
               "northeast" : {
                  "lat" : 42.023131,
                  "lng" : -87.52404399999999
               },
               "southwest" : {
                  "lat" : 41.6443349,
                  "lng" : -87.9402669
               }
            },
            "location" : {
               "lat" : 41.8781136,
               "lng" : -87.6297982
            },
            "location_type" : "APPROXIMATE",
            "viewport" : {
               "northeast" : {
                  "lat" : 42.023131,
                  "lng" : -87.52404399999999
               },
               "southwest" : {
                  "lat" : 41.6443349,
                  "lng" : -87.9402669
               }
            }
         },
         "place_id" : "ChIJ7cv00DwsDogRAMDACa2m4K8",
         "types" : [ "locality", "political" ]
      }
   ],
   "status" : "OK"
},
    {
   "results" : [
      {
         "address_components" : [
            {
               "long_name" : "Hazlehurst",
               "short_name" : "Hazlehurst",
               "types" : [ "locality", "political" ]
            },
            {
               "long_name" : "Copiah County",
               "short_name" : "Copiah County",
               "types" : [ "administrative_area_level_2", "political" ]
            },
            {
               "long_name" : "Mississippi",
               "short_name" : "MS",
               "types" : [ "administrative_area_level_1", "political" ]
            },
            {
               "long_name" : "United States",
               "short_name" : "US",
               "types" : [ "country", "political" ]
            },
            {
               "long_name" : "39083",
               "short_name" : "39083",
               "types" : [ "postal_code" ]
            }
         ],
         "formatted_address" : "Hazlehurst, MS 39083, USA",
         "geometry" : {
            "bounds" : {
               "northeast" : {
                  "lat" : 31.882285,
                  "lng" : -90.3666288
               },
               "southwest" : {
                  "lat" : 31.84635,
                  "lng" : -90.41324
               }
            },
            "location" : {
               "lat" : 31.8604382,
               "lng" : -90.39592549999999
            },
            "location_type" : "APPROXIMATE",
            "viewport" : {
               "northeast" : {
                  "lat" : 31.882285,
                  "lng" : -90.3666288
               },
               "southwest" : {
                  "lat" : 31.84635,
                  "lng" : -90.41324
               }
            }
         },
         "place_id" : "ChIJpzhrtY1uKIYRBY5ZoS823WU",
         "types" : [ "locality", "political" ]
      },
      {
         "address_components" : [
            {
               "long_name" : "Hazlehurst",
               "short_name" : "Hazlehurst",
               "types" : [ "locality", "political" ]
            },
            {
               "long_name" : "Jeff Davis County",
               "short_name" : "Jeff Davis County",
               "types" : [ "administrative_area_level_2", "political" ]
            },
            {
               "long_name" : "Georgia",
               "short_name" : "GA",
               "types" : [ "administrative_area_level_1", "political" ]
            },
            {
               "long_name" : "United States",
               "short_name" : "US",
               "types" : [ "country", "political" ]
            },
            {
               "long_name" : "31539",
               "short_name" : "31539",
               "types" : [ "postal_code" ]
            }
         ],
         "formatted_address" : "Hazlehurst, GA 31539, USA",
         "geometry" : {
            "bounds" : {
               "northeast" : {
                  "lat" : 31.8838849,
                  "lng" : -82.56032599999999
               },
               "southwest" : {
                  "lat" : 31.838274,
                  "lng" : -82.620863
               }
            },
            "location" : {
               "lat" : 31.8696309,
               "lng" : -82.59430259999999
            },
            "location_type" : "APPROXIMATE",
            "viewport" : {
               "northeast" : {
                  "lat" : 31.8838849,
                  "lng" : -82.56032599999999
               },
               "southwest" : {
                  "lat" : 31.838274,
                  "lng" : -82.620863
               }
            }
         },
         "place_id" : "ChIJp1tLW49B8IgRM-WROnhZKxU",
         "types" : [ "locality", "political" ]
      },
      {
         "address_components" : [
            {
               "long_name" : "Hazelhurst",
               "short_name" : "Hazelhurst",
               "types" : [ "locality", "political" ]
            },
            {
               "long_name" : "Hazelhurst",
               "short_name" : "Hazelhurst",
               "types" : [ "administrative_area_level_3", "political" ]
            },
            {
               "long_name" : "Oneida County",
               "short_name" : "Oneida County",
               "types" : [ "administrative_area_level_2", "political" ]
            },
            {
               "long_name" : "Wisconsin",
               "short_name" : "WI",
               "types" : [ "administrative_area_level_1", "political" ]
            },
            {
               "long_name" : "United States",
               "short_name" : "US",
               "types" : [ "country", "political" ]
            },
            {
               "long_name" : "54531",
               "short_name" : "54531",
               "types" : [ "postal_code" ]
            }
         ],
         "formatted_address" : "Hazelhurst, WI 54531, USA",
         "geometry" : {
            "location" : {
               "lat" : 45.8077321,
               "lng" : -89.7251462
            },
            "location_type" : "APPROXIMATE",
            "viewport" : {
               "northeast" : {
                  "lat" : 45.80908108029149,
                  "lng" : -89.7237972197085
               },
               "southwest" : {
                  "lat" : 45.80638311970849,
                  "lng" : -89.72649518029151
               }
            }
         },
         "place_id" : "ChIJVT5t5l2WVU0RnHnTmY5cxCw",
         "types" : [ "locality", "political" ]
      }
   ],
   "status" : "OK"
},
    
    {
	"results": [{
		"address_components": [{
			"long_name": "Pittsburgh",
			"short_name": "Pitts",
			"types": ["locality", "political"]
		}, {
			"long_name": "Allegheny County",
			"short_name": "Allegheny County",
			"types": ["administrative_area_level_2", "political"]
		}, {
			"long_name": "Pennsylvania",
			"short_name": "PA",
			"types": ["administrative_area_level_1", "political"]
		}, {
			"long_name": "United States",
			"short_name": "US",
			"types": ["country", "political"]
		}],
		"formatted_address": "Pittsburgh, PA, USA",
		"geometry": {
			"bounds": {
				"northeast": {
					"lat": 40.501368,
					"lng": -79.8657231
				},
				"southwest": {
					"lat": 40.3613689,
					"lng": -80.0952779
				}
			},
			"location": {
				"lat": 40.44062479999999,
				"lng": -79.9958864
			},
			"location_type": "APPROXIMATE",
			"viewport": {
				"northeast": {
					"lat": 40.501368,
					"lng": -79.8657231
				},
				"southwest": {
					"lat": 40.3613689,
					"lng": -80.0952779
				}
			}
		},
		"place_id": "ChIJA4UGSG_xNIgRNBuiWqEV-Y0",
		"types": ["locality", "political"]
	}],
	"status": "OK"
},
    {
	"results": [{
		"address_components": [{
			"long_name": "Mound",
			"short_name": "Mound",
			"types": ["locality", "political"]
		}, {
			"long_name": "Hennepin County",
			"short_name": "Hennepin County",
			"types": ["administrative_area_level_2", "political"]
		}, {
			"long_name": "Minnesota",
			"short_name": "MN",
			"types": ["administrative_area_level_1", "political"]
		}, {
			"long_name": "United States",
			"short_name": "US",
			"types": ["country", "political"]
		}],
		"formatted_address": "Mound, MN, USA",
		"geometry": {
			"bounds": {
				"northeast": {
					"lat": 44.9511312,
					"lng": -93.6305359
				},
				"southwest": {
					"lat": 44.9163799,
					"lng": -93.693299
				}
			},
			"location": {
				"lat": 44.9366295,
				"lng": -93.66607189999999
			},
			"location_type": "APPROXIMATE",
			"viewport": {
				"northeast": {
					"lat": 44.9511312,
					"lng": -93.6305359
				},
				"southwest": {
					"lat": 44.9163799,
					"lng": -93.693299
				}
			}
		},
		"place_id": "ChIJcWxPfgIC9ocRBF12Ne5cwiE",
		"types": ["locality", "political"]
	}],
	"status": "OK"
}, {
	"results": [{
		"address_components": [{
			"long_name": "Clarinda",
			"short_name": "Clarinda",
			"types": ["locality", "political"]
		}, {
			"long_name": "Nodaway",
			"short_name": "Nodaway",
			"types": ["administrative_area_level_3", "political"]
		}, {
			"long_name": "Page County",
			"short_name": "Page County",
			"types": ["administrative_area_level_2", "political"]
		}, {
			"long_name": "Iowa",
			"short_name": "IA",
			"types": ["administrative_area_level_1", "political"]
		}, {
			"long_name": "United States",
			"short_name": "US",
			"types": ["country", "political"]
		}, {
			"long_name": "51632",
			"short_name": "51632",
			"types": ["postal_code"]
		}],
		"formatted_address": "Clarinda, IA 51632, USA",
		"geometry": {
			"bounds": {
				"northeast": {
					"lat": 40.764229,
					"lng": -95.006845
				},
				"southwest": {
					"lat": 40.713642,
					"lng": -95.061199
				}
			},
			"location": {
				"lat": 40.7419352,
				"lng": -95.038313
			},
			"location_type": "APPROXIMATE",
			"viewport": {
				"northeast": {
					"lat": 40.764229,
					"lng": -95.006845
				},
				"southwest": {
					"lat": 40.713642,
					"lng": -95.061199
				}
			}
		},
		"place_id": "ChIJO4xdLBcz64cRG3MJ6BiYx-s",
		"types": ["locality", "political"]
	}],
	"status": "OK"
},
    {
   "results" : [
      {
         "address_components" : [
            {
               "long_name" : "Grand Rapids",
               "short_name" : "Grand Rapids",
               "types" : [ "locality", "political" ]
            },
            {
               "long_name" : "Kent County",
               "short_name" : "Kent County",
               "types" : [ "administrative_area_level_2", "political" ]
            },
            {
               "long_name" : "Michigan",
               "short_name" : "MI",
               "types" : [ "administrative_area_level_1", "political" ]
            },
            {
               "long_name" : "United States",
               "short_name" : "US",
               "types" : [ "country", "political" ]
            }
         ],
         "formatted_address" : "Grand Rapids, MI, USA",
         "geometry" : {
            "bounds" : {
               "northeast" : {
                  "lat" : 43.0290509,
                  "lng" : -85.56864589999999
               },
               "southwest" : {
                  "lat" : 42.8836659,
                  "lng" : -85.75153209999999
               }
            },
            "location" : {
               "lat" : 42.9633599,
               "lng" : -85.6680863
            },
            "location_type" : "APPROXIMATE",
            "viewport" : {
               "northeast" : {
                  "lat" : 43.0290509,
                  "lng" : -85.56864589999999
               },
               "southwest" : {
                  "lat" : 42.8836659,
                  "lng" : -85.75153209999999
               }
            }
         },
         "partial_match" : true,
         "place_id" : "ChIJFShQu2BUGIgR0KjTG8uqk6U",
         "types" : [ "locality", "political" ]
      },
      {
         "address_components" : [
            {
               "long_name" : "Grand Rapids",
               "short_name" : "Grand Rapids",
               "types" : [ "locality", "political" ]
            },
            {
               "long_name" : "Ontonagon Township",
               "short_name" : "Ontonagon Township",
               "types" : [ "administrative_area_level_3", "political" ]
            },
            {
               "long_name" : "Ontonagon County",
               "short_name" : "Ontonagon County",
               "types" : [ "administrative_area_level_2", "political" ]
            },
            {
               "long_name" : "Michigan",
               "short_name" : "MI",
               "types" : [ "administrative_area_level_1", "political" ]
            },
            {
               "long_name" : "United States",
               "short_name" : "US",
               "types" : [ "country", "political" ]
            },
            {
               "long_name" : "49953",
               "short_name" : "49953",
               "types" : [ "postal_code" ]
            }
         ],
         "formatted_address" : "Grand Rapids, MI 49953, USA",
         "geometry" : {
            "location" : {
               "lat" : 46.7657748,
               "lng" : -89.2756983
            },
            "location_type" : "APPROXIMATE",
            "viewport" : {
               "northeast" : {
                  "lat" : 46.76712378029149,
                  "lng" : -89.27434931970849
               },
               "southwest" : {
                  "lat" : 46.76442581970849,
                  "lng" : -89.2770472802915
               }
            }
         },
         "partial_match" : true,
         "place_id" : "ChIJ2Q7t6SH8Vk0R4KSPxmAt4Ns",
         "types" : [ "locality", "political" ]
      }
   ],
   "status" : "OK"
},
    
    {
	"results": [{
		"address_components": [{
			"long_name": "Hoboken",
			"short_name": "Hoboken",
			"types": ["locality", "political"]
		}, {
			"long_name": "Hudson County",
			"short_name": "Hudson County",
			"types": ["administrative_area_level_2", "political"]
		}, {
			"long_name": "New Jersey",
			"short_name": "NJ",
			"types": ["administrative_area_level_1", "political"]
		}, {
			"long_name": "United States",
			"short_name": "US",
			"types": ["country", "political"]
		}],
		"formatted_address": "Hoboken, NJ, USA",
		"geometry": {
			"bounds": {
				"northeast": {
					"lat": 40.7590989,
					"lng": -74.0204333
				},
				"southwest": {
					"lat": 40.7334348,
					"lng": -74.044117
				}
			},
			"location": {
				"lat": 40.7439905,
				"lng": -74.0323626
			},
			"location_type": "APPROXIMATE",
			"viewport": {
				"northeast": {
					"lat": 40.7590989,
					"lng": -74.0204333
				},
				"southwest": {
					"lat": 40.7334348,
					"lng": -74.044117
				}
			}
		},
		"place_id": "ChIJ0TMVjWBXwokRh783EWrKtkQ",
		"types": ["locality", "political"]
	}],
	"status": "OK"
}, {
	"results": [{
		"address_components": [{
			"long_name": "Mazatlán",
			"short_name": "Mazatlán",
			"types": ["locality", "political"]
		}, {
			"long_name": "Mazatlán",
			"short_name": "Mazatlán",
			"types": ["administrative_area_level_2", "political"]
		}, {
			"long_name": "Sinaloa",
			"short_name": "Sin.",
			"types": ["administrative_area_level_1", "political"]
		}, {
			"long_name": "Mexico",
			"short_name": "MX",
			"types": ["country", "political"]
		}],
		"formatted_address": "Mazatlán, Sin., Mexico",
		"geometry": {
			"bounds": {
				"northeast": {
					"lat": 23.317596,
					"lng": -106.3503905
				},
				"southwest": {
					"lat": 23.1759831,
					"lng": -106.4939296
				}
			},
			"location": {
				"lat": 23.2494148,
				"lng": -106.4111425
			},
			"location_type": "APPROXIMATE",
			"viewport": {
				"northeast": {
					"lat": 23.317596,
					"lng": -106.3503905
				},
				"southwest": {
					"lat": 23.1759831,
					"lng": -106.4939296
				}
			}
		},
		"place_id": "ChIJwTcYaEFTn4YRsnI88arEpGI",
		"types": ["locality", "political"]
	}],
	"status": "OK"
}, {
	"results": [{
		"address_components": [{
			"long_name": "Newport News",
			"short_name": "Newport News",
			"types": ["locality", "political"]
		}, {
			"long_name": "Virginia",
			"short_name": "VA",
			"types": ["administrative_area_level_1", "political"]
		}, {
			"long_name": "United States",
			"short_name": "US",
			"types": ["country", "political"]
		}],
		"formatted_address": "Newport News, VA, USA",
		"geometry": {
			"bounds": {
				"northeast": {
					"lat": 37.220645,
					"lng": -76.3875948
				},
				"southwest": {
					"lat": 36.9588602,
					"lng": -76.62794730000002
				}
			},
			"location": {
				"lat": 37.0870821,
				"lng": -76.4730122
			},
			"location_type": "APPROXIMATE",
			"viewport": {
				"northeast": {
					"lat": 37.220645,
					"lng": -76.3875948
				},
				"southwest": {
					"lat": 36.9588602,
					"lng": -76.62794730000002
				}
			}
		},
		"place_id": "ChIJ2VZNcIJ7sIkRG8vIA-xVfuw",
		"types": ["locality", "political"]
	}],
	"status": "OK"
}, {
	"results": [{
		"address_components": [{
			"long_name": "Varanasi",
			"short_name": "Varanasi",
			"types": ["locality", "political"]
		}, {
			"long_name": "Varanasi",
			"short_name": "Varanasi",
			"types": ["administrative_area_level_2", "political"]
		}, {
			"long_name": "Uttar Pradesh",
			"short_name": "UP",
			"types": ["administrative_area_level_1", "political"]
		}, {
			"long_name": "India",
			"short_name": "IN",
			"types": ["country", "political"]
		}],
		"formatted_address": "Varanasi, Uttar Pradesh, India",
		"geometry": {
			"bounds": {
				"northeast": {
					"lat": 25.3956651,
					"lng": 83.0607605
				},
				"southwest": {
					"lat": 25.2458603,
					"lng": 82.9214574
				}
			},
			"location": {
				"lat": 25.3176452,
				"lng": 82.9739144
			},
			"location_type": "APPROXIMATE",
			"viewport": {
				"northeast": {
					"lat": 25.3956651,
					"lng": 83.0607605
				},
				"southwest": {
					"lat": 25.2458603,
					"lng": 82.9214574
				}
			}
		},
		"place_id": "ChIJTc_rb7ctjjkRtfA_hRAXE2g",
		"types": ["locality", "political"]
	}],
	"status": "OK"
}, {
	"results": [{
		"address_components": [{
			"long_name": "Montgomery",
			"short_name": "Montgomery",
			"types": ["locality", "political"]
		}, {
			"long_name": "Montgomery County",
			"short_name": "Montgomery County",
			"types": ["administrative_area_level_2", "political"]
		}, {
			"long_name": "Alabama",
			"short_name": "AL",
			"types": ["administrative_area_level_1", "political"]
		}, {
			"long_name": "United States",
			"short_name": "US",
			"types": ["country", "political"]
		}],
		"formatted_address": "Montgomery, AL, USA",
		"geometry": {
			"bounds": {
				"northeast": {
					"lat": 32.4376769,
					"lng": -86.07220509999999
				},
				"southwest": {
					"lat": 32.249921,
					"lng": -86.4198699
				}
			},
			"location": {
				"lat": 32.3668052,
				"lng": -86.2999689
			},
			"location_type": "APPROXIMATE",
			"viewport": {
				"northeast": {
					"lat": 32.4376769,
					"lng": -86.07220509999999
				},
				"southwest": {
					"lat": 32.249921,
					"lng": -86.4198699
				}
			}
		},
		"place_id": "ChIJ-YHUsJSBjogR_4VCNR1RG44",
		"types": ["locality", "political"]
	}],
	"status": "OK"
}, 
    {
   "results" : [
      {
         "address_components" : [
            {
               "long_name" : "Kempsey",
               "short_name" : "Kempsey",
               "types" : [ "locality", "political" ]
            },
            {
               "long_name" : "New South Wales",
               "short_name" : "NSW",
               "types" : [ "administrative_area_level_1", "political" ]
            },
            {
               "long_name" : "Australia",
               "short_name" : "AU",
               "types" : [ "country", "political" ]
            },
            {
               "long_name" : "2440",
               "short_name" : "2440",
               "types" : [ "postal_code" ]
            }
         ],
         "formatted_address" : "Kempsey NSW 2440, Australia",
         "geometry" : {
            "bounds" : {
               "northeast" : {
                  "lat" : -31.0381099,
                  "lng" : 152.8794733
               },
               "southwest" : {
                  "lat" : -31.0869765,
                  "lng" : 152.831158
               }
            },
            "location" : {
               "lat" : -31.0800609,
               "lng" : 152.8415928
            },
            "location_type" : "APPROXIMATE",
            "viewport" : {
               "northeast" : {
                  "lat" : -31.0381099,
                  "lng" : 152.8794733
               },
               "southwest" : {
                  "lat" : -31.0869765,
                  "lng" : 152.831158
               }
            }
         },
         "place_id" : "ChIJOYFX0BPfnWsR8C1EkLQJBgU",
         "types" : [ "locality", "political" ]
      },
      {
         "address_components" : [
            {
               "long_name" : "Kempsey",
               "short_name" : "Kempsey",
               "types" : [ "colloquial_area", "locality", "political" ]
            },
            {
               "long_name" : "New South Wales",
               "short_name" : "NSW",
               "types" : [ "administrative_area_level_1", "political" ]
            },
            {
               "long_name" : "Australia",
               "short_name" : "AU",
               "types" : [ "country", "political" ]
            },
            {
               "long_name" : "2440",
               "short_name" : "2440",
               "types" : [ "postal_code" ]
            }
         ],
         "formatted_address" : "Kempsey NSW 2440, Australia",
         "geometry" : {
            "bounds" : {
               "northeast" : {
                  "lat" : -31.03409,
                  "lng" : 152.9183801
               },
               "southwest" : {
                  "lat" : -31.1631233,
                  "lng" : 152.7695246
               }
            },
            "location" : {
               "lat" : -31.1042485,
               "lng" : 152.8382315
            },
            "location_type" : "APPROXIMATE",
            "viewport" : {
               "northeast" : {
                  "lat" : -31.03409,
                  "lng" : 152.9183801
               },
               "southwest" : {
                  "lat" : -31.1631233,
                  "lng" : 152.7695246
               }
            }
         },
         "place_id" : "ChIJ6zk6F3Z1nmsR4JZDkLQJBgQ",
         "types" : [ "colloquial_area", "locality", "political" ]
      }
   ],
   "status" : "OK"
}, 
    {
   "results" : [
      {
         "address_components" : [
            {
               "long_name" : "New York",
               "short_name" : "NY",
               "types" : [ "locality", "political" ]
            },
            {
               "long_name" : "New York",
               "short_name" : "NY",
               "types" : [ "administrative_area_level_1", "political" ]
            },
            {
               "long_name" : "United States",
               "short_name" : "US",
               "types" : [ "country", "political" ]
            }
         ],
         "formatted_address" : "New York, NY, USA",
         "geometry" : {
            "bounds" : {
               "northeast" : {
                  "lat" : 40.91525559999999,
                  "lng" : -73.70027209999999
               },
               "southwest" : {
                  "lat" : 40.4960439,
                  "lng" : -74.25573489999999
               }
            },
            "location" : {
               "lat" : 40.7127837,
               "lng" : -74.0059413
            },
            "location_type" : "APPROXIMATE",
            "viewport" : {
               "northeast" : {
                  "lat" : 40.91525559999999,
                  "lng" : -73.70027209999999
               },
               "southwest" : {
                  "lat" : 40.4960439,
                  "lng" : -74.25573489999999
               }
            }
         },
         "partial_match" : true,
         "place_id" : "ChIJOwg_06VPwokRYv534QaPC8g",
         "types" : [ "locality", "political" ]
      },
      {
         "address_components" : [
            {
               "long_name" : "New York",
               "short_name" : "New York",
               "types" : [ "locality", "political" ]
            },
            {
               "long_name" : "Union",
               "short_name" : "Union",
               "types" : [ "administrative_area_level_3", "political" ]
            },
            {
               "long_name" : "Wayne County",
               "short_name" : "Wayne County",
               "types" : [ "administrative_area_level_2", "political" ]
            },
            {
               "long_name" : "Iowa",
               "short_name" : "IA",
               "types" : [ "administrative_area_level_1", "political" ]
            },
            {
               "long_name" : "United States",
               "short_name" : "US",
               "types" : [ "country", "political" ]
            },
            {
               "long_name" : "50238",
               "short_name" : "50238",
               "types" : [ "postal_code" ]
            }
         ],
         "formatted_address" : "New York, IA 50238, USA",
         "geometry" : {
            "location" : {
               "lat" : 40.8516701,
               "lng" : -93.25993179999999
            },
            "location_type" : "APPROXIMATE",
            "viewport" : {
               "northeast" : {
                  "lat" : 40.8530190802915,
                  "lng" : -93.25858281970848
               },
               "southwest" : {
                  "lat" : 40.8503211197085,
                  "lng" : -93.2612807802915
               }
            }
         },
         "partial_match" : true,
         "place_id" : "ChIJD_qB3F8X6YcRDraFbXmLUD4",
         "types" : [ "locality", "political" ]
      }
   ],
   "status" : "OK"
},
     {
   "results" : [
      {
         "address_components" : [
            {
               "long_name" : "Butler",
               "short_name" : "Butler",
               "types" : [ "locality", "political" ]
            },
            {
               "long_name" : "Choctaw County",
               "short_name" : "Choctaw County",
               "types" : [ "administrative_area_level_2", "political" ]
            },
            {
               "long_name" : "Alabama",
               "short_name" : "AL",
               "types" : [ "administrative_area_level_1", "political" ]
            },
            {
               "long_name" : "United States",
               "short_name" : "US",
               "types" : [ "country", "political" ]
            },
            {
               "long_name" : "36904",
               "short_name" : "36904",
               "types" : [ "postal_code" ]
            }
         ],
         "formatted_address" : "Butler, AL 36904, USA",
         "geometry" : {
            "bounds" : {
               "northeast" : {
                  "lat" : 32.1264919,
                  "lng" : -88.183453
               },
               "southwest" : {
                  "lat" : 32.067835,
                  "lng" : -88.25546489999999
               }
            },
            "location" : {
               "lat" : 32.0895908,
               "lng" : -88.2219652
            },
            "location_type" : "APPROXIMATE",
            "viewport" : {
               "northeast" : {
                  "lat" : 32.1264919,
                  "lng" : -88.183453
               },
               "southwest" : {
                  "lat" : 32.067835,
                  "lng" : -88.25546489999999
               }
            }
         },
         "place_id" : "ChIJSYn9GpPjhIgRiAbBlk7cMm0",
         "types" : [ "locality", "political" ]
      }
   ],
   "status" : "OK"
},
    
    {
   "results" : [
      {
         "address_components" : [
            {
               "long_name" : "Paris",
               "short_name" : "Paris",
               "types" : [ "locality", "political" ]
            },
            {
               "long_name" : "Paris",
               "short_name" : "Paris",
               "types" : [ "administrative_area_level_2", "political" ]
            },
            {
               "long_name" : "Île-de-France",
               "short_name" : "IDF",
               "types" : [ "administrative_area_level_1", "political" ]
            },
            {
               "long_name" : "France",
               "short_name" : "FR",
               "types" : [ "country", "political" ]
            }
         ],
         "formatted_address" : "Paris, France",
         "geometry" : {
            "bounds" : {
               "northeast" : {
                  "lat" : 48.9021449,
                  "lng" : 2.4699208
               },
               "southwest" : {
                  "lat" : 48.815573,
                  "lng" : 2.225193
               }
            },
            "location" : {
               "lat" : 48.856614,
               "lng" : 2.3522219
            },
            "location_type" : "APPROXIMATE",
            "viewport" : {
               "northeast" : {
                  "lat" : 48.9021449,
                  "lng" : 2.4699208
               },
               "southwest" : {
                  "lat" : 48.815573,
                  "lng" : 2.225193
               }
            }
         },
         "place_id" : "ChIJD7fiBh9u5kcRYJSMaMOCCwQ",
         "types" : [ "locality", "political" ]
      },
      {
         "address_components" : [
            {
               "long_name" : "Paris",
               "short_name" : "Paris",
               "types" : [ "sublocality_level_1", "sublocality", "political" ]
            },
            {
               "long_name" : "Salles",
               "short_name" : "Salles",
               "types" : [ "locality", "political" ]
            },
            {
               "long_name" : "Gironde",
               "short_name" : "Gironde",
               "types" : [ "administrative_area_level_2", "political" ]
            },
            {
               "long_name" : "Aquitaine",
               "short_name" : "Aquitaine",
               "types" : [ "administrative_area_level_1", "political" ]
            },
            {
               "long_name" : "France",
               "short_name" : "FR",
               "types" : [ "country", "political" ]
            },
            {
               "long_name" : "33770",
               "short_name" : "33770",
               "types" : [ "postal_code" ]
            }
         ],
         "formatted_address" : "Paris, 33770 Salles, France",
         "geometry" : {
            "location" : {
               "lat" : 44.562918,
               "lng" : -0.8655079999999999
            },
            "location_type" : "APPROXIMATE",
            "viewport" : {
               "northeast" : {
                  "lat" : 44.56426698029149,
                  "lng" : -0.864159019708498
               },
               "southwest" : {
                  "lat" : 44.56156901970849,
                  "lng" : -0.866856980291502
               }
            }
         },
         "place_id" : "ChIJt0HoUJ7tVA0RLqe2NDiDIAQ",
         "types" : [ "sublocality_level_1", "sublocality", "political" ]
      }
   ],
   "status" : "OK"
},
    
    {
   "results" : [
      {
         "address_components" : [
            {
               "long_name" : "Kansas City",
               "short_name" : "Kansas City",
               "types" : [ "locality", "political" ]
            },
            {
               "long_name" : "Wyandotte County",
               "short_name" : "Wyandotte County",
               "types" : [ "administrative_area_level_2", "political" ]
            },
            {
               "long_name" : "Kansas",
               "short_name" : "KS",
               "types" : [ "administrative_area_level_1", "political" ]
            },
            {
               "long_name" : "United States",
               "short_name" : "US",
               "types" : [ "country", "political" ]
            }
         ],
         "formatted_address" : "Kansas City, KS, USA",
         "geometry" : {
            "bounds" : {
               "northeast" : {
                  "lat" : 39.202911,
                  "lng" : -94.588387
               },
               "southwest" : {
                  "lat" : 39.0435589,
                  "lng" : -94.90846499999999
               }
            },
            "location" : {
               "lat" : 39.114053,
               "lng" : -94.6274636
            },
            "location_type" : "APPROXIMATE",
            "viewport" : {
               "northeast" : {
                  "lat" : 39.202911,
                  "lng" : -94.588387
               },
               "southwest" : {
                  "lat" : 39.0435589,
                  "lng" : -94.90846499999999
               }
            }
         },
         "place_id" : "ChIJFTXPJ-SMwIcRBR7DcHt3d9w",
         "types" : [ "locality", "political" ]
      },
      {
         "address_components" : [
            {
               "long_name" : "Kansas",
               "short_name" : "Kansas",
               "types" : [ "locality", "political" ]
            },
            {
               "long_name" : "Kansas Township",
               "short_name" : "Kansas Township",
               "types" : [ "administrative_area_level_3", "political" ]
            },
            {
               "long_name" : "Edgar County",
               "short_name" : "Edgar County",
               "types" : [ "administrative_area_level_2", "political" ]
            },
            {
               "long_name" : "Illinois",
               "short_name" : "IL",
               "types" : [ "administrative_area_level_1", "political" ]
            },
            {
               "long_name" : "United States",
               "short_name" : "US",
               "types" : [ "country", "political" ]
            },
            {
               "long_name" : "61933",
               "short_name" : "61933",
               "types" : [ "postal_code" ]
            }
         ],
         "formatted_address" : "Kansas, IL 61933, USA",
         "geometry" : {
            "bounds" : {
               "northeast" : {
                  "lat" : 39.5618039,
                  "lng" : -87.9297749
               },
               "southwest" : {
                  "lat" : 39.547094,
                  "lng" : -87.94913099999999
               }
            },
            "location" : {
               "lat" : 39.5528129,
               "lng" : -87.9394779
            },
            "location_type" : "APPROXIMATE",
            "viewport" : {
               "northeast" : {
                  "lat" : 39.5618039,
                  "lng" : -87.9297749
               },
               "southwest" : {
                  "lat" : 39.547094,
                  "lng" : -87.94913099999999
               }
            }
         },
         "place_id" : "ChIJZxP2llPpcogRYwpzk0lbCZI",
         "types" : [ "locality", "political" ]
      }
   ],
   "status" : "OK"
},
    {
   "results" : [
      {
         "address_components" : [
            {
               "long_name" : "Indore",
               "short_name" : "Indore",
               "types" : [ "locality", "political" ]
            },
            {
               "long_name" : "Indore",
               "short_name" : "Indore",
               "types" : [ "administrative_area_level_2", "political" ]
            },
            {
               "long_name" : "Madhya Pradesh",
               "short_name" : "MP",
               "types" : [ "administrative_area_level_1", "political" ]
            },
            {
               "long_name" : "India",
               "short_name" : "IN",
               "types" : [ "country", "political" ]
            }
         ],
         "formatted_address" : "Indore, Madhya Pradesh, India",
         "geometry" : {
            "bounds" : {
               "northeast" : {
                  "lat" : 22.8485735,
                  "lng" : 75.965395
               },
               "southwest" : {
                  "lat" : 22.6076326,
                  "lng" : 75.7411195
               }
            },
            "location" : {
               "lat" : 22.7195687,
               "lng" : 75.8577258
            },
            "location_type" : "APPROXIMATE",
            "viewport" : {
               "northeast" : {
                  "lat" : 22.8485735,
                  "lng" : 75.965395
               },
               "southwest" : {
                  "lat" : 22.6076326,
                  "lng" : 75.7411195
               }
            }
         },
         "place_id" : "ChIJ2w1BG638YjkR9EBiNdrEbgk",
         "types" : [ "locality", "political" ]
      }
   ],
   "status" : "OK"
},
    {
   "results" : [
      {
         "address_components" : [
            {
               "long_name" : "Khandwa",
               "short_name" : "Khandwa",
               "types" : [ "locality", "political" ]
            },
            {
               "long_name" : "Khandwa",
               "short_name" : "Khandwa",
               "types" : [ "administrative_area_level_2", "political" ]
            },
            {
               "long_name" : "Madhya Pradesh",
               "short_name" : "MP",
               "types" : [ "administrative_area_level_1", "political" ]
            },
            {
               "long_name" : "India",
               "short_name" : "IN",
               "types" : [ "country", "political" ]
            },
            {
               "long_name" : "450001",
               "short_name" : "450001",
               "types" : [ "postal_code" ]
            }
         ],
         "formatted_address" : "Khandwa, Madhya Pradesh 450001, India",
         "geometry" : {
            "bounds" : {
               "northeast" : {
                  "lat" : 21.8553447,
                  "lng" : 76.38661309999999
               },
               "southwest" : {
                  "lat" : 21.8052105,
                  "lng" : 76.3182168
               }
            },
            "location" : {
               "lat" : 21.8257334,
               "lng" : 76.352571
            },
            "location_type" : "APPROXIMATE",
            "viewport" : {
               "northeast" : {
                  "lat" : 21.8553447,
                  "lng" : 76.38661309999999
               },
               "southwest" : {
                  "lat" : 21.8052105,
                  "lng" : 76.3182168
               }
            }
         },
         "place_id" : "ChIJjeDBDG4b2DsRIzq-AqxGH8I",
         "types" : [ "locality", "political" ]
      }
   ],
   "status" : "OK"
},
    {
   "results" : [
      {
         "address_components" : [
            {
               "long_name" : "Mumbai",
               "short_name" : "Mumbai",
               "types" : [ "locality", "political" ]
            },
            {
               "long_name" : "Mumbai",
               "short_name" : "Mumbai",
               "types" : [ "administrative_area_level_2", "political" ]
            },
            {
               "long_name" : "Maharashtra",
               "short_name" : "MH",
               "types" : [ "administrative_area_level_1", "political" ]
            },
            {
               "long_name" : "India",
               "short_name" : "IN",
               "types" : [ "country", "political" ]
            }
         ],
         "formatted_address" : "Mumbai, Maharashtra, India",
         "geometry" : {
            "bounds" : {
               "northeast" : {
                  "lat" : 19.2716339,
                  "lng" : 72.9864994
               },
               "southwest" : {
                  "lat" : 18.8928676,
                  "lng" : 72.77590889999999
               }
            },
            "location" : {
               "lat" : 19.0759837,
               "lng" : 72.87765589999999
            },
            "location_type" : "APPROXIMATE",
            "viewport" : {
               "northeast" : {
                  "lat" : 19.2716339,
                  "lng" : 72.9864994
               },
               "southwest" : {
                  "lat" : 18.8928676,
                  "lng" : 72.77590889999999
               }
            }
         },
         "place_id" : "ChIJwe1EZjDG5zsRaYxkjY_tpF0",
         "types" : [ "locality", "political" ]
      }
   ],
   "status" : "OK"
},
    {
   "results" : [
      {
         "address_components" : [
            {
               "long_name" : "Mumbai",
               "short_name" : "Mumbai",
               "types" : [ "locality", "political" ]
            },
            {
               "long_name" : "Mumbai",
               "short_name" : "Mumbai",
               "types" : [ "administrative_area_level_2", "political" ]
            },
            {
               "long_name" : "Maharashtra",
               "short_name" : "MH",
               "types" : [ "administrative_area_level_1", "political" ]
            },
            {
               "long_name" : "India",
               "short_name" : "IN",
               "types" : [ "country", "political" ]
            }
         ],
         "formatted_address" : "Mumbai, Maharashtra, India",
         "geometry" : {
            "bounds" : {
               "northeast" : {
                  "lat" : 19.2716339,
                  "lng" : 72.9864994
               },
               "southwest" : {
                  "lat" : 18.8928676,
                  "lng" : 72.77590889999999
               }
            },
            "location" : {
               "lat" : 19.0759837,
               "lng" : 72.87765589999999
            },
            "location_type" : "APPROXIMATE",
            "viewport" : {
               "northeast" : {
                  "lat" : 19.2716339,
                  "lng" : 72.9864994
               },
               "southwest" : {
                  "lat" : 18.8928676,
                  "lng" : 72.77590889999999
               }
            }
         },
         "place_id" : "ChIJwe1EZjDG5zsRaYxkjY_tpF0",
         "types" : [ "locality", "political" ]
      }
   ],
   "status" : "OK"
},
    {
   "results" : [
      {
         "address_components" : [
            {
               "long_name" : "Astoria",
               "short_name" : "Astoria",
               "types" : [ "neighborhood", "political" ]
            },
            {
               "long_name" : "Queens",
               "short_name" : "Queens",
               "types" : [ "sublocality_level_1", "sublocality", "political" ]
            },
            {
               "long_name" : "New York",
               "short_name" : "NY",
               "types" : [ "locality", "political" ]
            },
            {
               "long_name" : "Queens County",
               "short_name" : "Queens County",
               "types" : [ "administrative_area_level_2", "political" ]
            },
            {
               "long_name" : "New York",
               "short_name" : "NY",
               "types" : [ "administrative_area_level_1", "political" ]
            },
            {
               "long_name" : "United States",
               "short_name" : "US",
               "types" : [ "country", "political" ]
            }
         ],
         "formatted_address" : "Astoria, Queens, NY, USA",
         "geometry" : {
            "bounds" : {
               "northeast" : {
                  "lat" : 40.78260179999999,
                  "lng" : -73.90221819999999
               },
               "southwest" : {
                  "lat" : 40.7529475,
                  "lng" : -73.9447342
               }
            },
            "location" : {
               "lat" : 40.7643574,
               "lng" : -73.92346189999999
            },
            "location_type" : "APPROXIMATE",
            "viewport" : {
               "northeast" : {
                  "lat" : 40.78260179999999,
                  "lng" : -73.90221819999999
               },
               "southwest" : {
                  "lat" : 40.7529475,
                  "lng" : -73.9447342
               }
            }
         },
         "place_id" : "ChIJU6W15zZfwokRDhGErMSvCpw",
         "types" : [ "neighborhood", "political" ]
      }
   ],
   "status" : "OK"
},
    {
   "results" : [
      {
         "address_components" : [
            {
               "long_name" : "Alton",
               "short_name" : "Alton",
               "types" : [ "locality", "political" ]
            },
            {
               "long_name" : "Alton Township",
               "short_name" : "Alton Township",
               "types" : [ "administrative_area_level_3", "political" ]
            },
            {
               "long_name" : "Madison County",
               "short_name" : "Madison County",
               "types" : [ "administrative_area_level_2", "political" ]
            },
            {
               "long_name" : "Illinois",
               "short_name" : "IL",
               "types" : [ "administrative_area_level_1", "political" ]
            },
            {
               "long_name" : "United States",
               "short_name" : "US",
               "types" : [ "country", "political" ]
            }
         ],
         "formatted_address" : "Alton, IL, USA",
         "geometry" : {
            "bounds" : {
               "northeast" : {
                  "lat" : 38.933132,
                  "lng" : -90.08830209999999
               },
               "southwest" : {
                  "lat" : 38.863383,
                  "lng" : -90.20900990000001
               }
            },
            "location" : {
               "lat" : 38.8906038,
               "lng" : -90.1842764
            },
            "location_type" : "APPROXIMATE",
            "viewport" : {
               "northeast" : {
                  "lat" : 38.933132,
                  "lng" : -90.08830209999999
               },
               "southwest" : {
                  "lat" : 38.863383,
                  "lng" : -90.20900990000001
               }
            }
         },
         "place_id" : "ChIJ5_sA1WNC34cRBMHEpDDSre0",
         "types" : [ "locality", "political" ]
      }
   ],
   "status" : "OK"
},
    {
   "results" : [
      {
         "address_components" : [
            {
               "long_name" : "Greenville",
               "short_name" : "Greenville",
               "types" : [ "locality", "political" ]
            },
            {
               "long_name" : "Madison County",
               "short_name" : "Madison County",
               "types" : [ "administrative_area_level_2", "political" ]
            },
            {
               "long_name" : "Florida",
               "short_name" : "FL",
               "types" : [ "administrative_area_level_1", "political" ]
            },
            {
               "long_name" : "United States",
               "short_name" : "US",
               "types" : [ "country", "political" ]
            },
            {
               "long_name" : "32331",
               "short_name" : "32331",
               "types" : [ "postal_code" ]
            }
         ],
         "formatted_address" : "Greenville, FL 32331, USA",
         "geometry" : {
            "bounds" : {
               "northeast" : {
                  "lat" : 30.475466,
                  "lng" : -83.6240219
               },
               "southwest" : {
                  "lat" : 30.45700799999999,
                  "lng" : -83.645022
               }
            },
            "location" : {
               "lat" : 30.46937389999999,
               "lng" : -83.6301544
            },
            "location_type" : "APPROXIMATE",
            "viewport" : {
               "northeast" : {
                  "lat" : 30.475466,
                  "lng" : -83.6240219
               },
               "southwest" : {
                  "lat" : 30.45700799999999,
                  "lng" : -83.645022
               }
            }
         },
         "partial_match" : true,
         "place_id" : "ChIJldvLLygn7IgROqcjnog6QiQ",
         "types" : [ "locality", "political" ]
      }
   ],
   "status" : "OK"
},
    
    {
   "results" : [
      {
         "address_components" : [
            {
               "long_name" : "Lubbock",
               "short_name" : "Lubbock",
               "types" : [ "locality", "political" ]
            },
            {
               "long_name" : "Lubbock County",
               "short_name" : "Lubbock County",
               "types" : [ "administrative_area_level_2", "political" ]
            },
            {
               "long_name" : "Texas",
               "short_name" : "TX",
               "types" : [ "administrative_area_level_1", "political" ]
            },
            {
               "long_name" : "United States",
               "short_name" : "US",
               "types" : [ "country", "political" ]
            }
         ],
         "formatted_address" : "Lubbock, TX, USA",
         "geometry" : {
            "bounds" : {
               "northeast" : {
                  "lat" : 33.7084538,
                  "lng" : -101.7485541
               },
               "southwest" : {
                  "lat" : 33.473833,
                  "lng" : -102.028333
               }
            },
            "location" : {
               "lat" : 33.5778631,
               "lng" : -101.8551665
            },
            "location_type" : "APPROXIMATE",
            "viewport" : {
               "northeast" : {
                  "lat" : 33.7084538,
                  "lng" : -101.7485541
               },
               "southwest" : {
                  "lat" : 33.473833,
                  "lng" : -102.028333
               }
            }
         },
         "place_id" : "ChIJOd19060S_oYRh0LoIikE8Bo",
         "types" : [ "locality", "political" ]
      }
   ],
   "status" : "OK"
},
    {
   "results" : [
      {
         "address_components" : [
            {
               "long_name" : "New Orleans",
               "short_name" : "New Orleans",
               "types" : [ "locality", "political" ]
            },
            {
               "long_name" : "Orleans Parish",
               "short_name" : "Orleans Parish",
               "types" : [ "administrative_area_level_2", "political" ]
            },
            {
               "long_name" : "Louisiana",
               "short_name" : "LA",
               "types" : [ "administrative_area_level_1", "political" ]
            },
            {
               "long_name" : "United States",
               "short_name" : "US",
               "types" : [ "country", "political" ]
            }
         ],
         "formatted_address" : "New Orleans, LA, USA",
         "geometry" : {
            "bounds" : {
               "northeast" : {
                  "lat" : 30.1748625,
                  "lng" : -89.62693109999999
               },
               "southwest" : {
                  "lat" : 29.8666609,
                  "lng" : -90.14007389999999
               }
            },
            "location" : {
               "lat" : 29.95106579999999,
               "lng" : -90.0715323
            },
            "location_type" : "APPROXIMATE",
            "viewport" : {
               "northeast" : {
                  "lat" : 30.1748625,
                  "lng" : -89.62693109999999
               },
               "southwest" : {
                  "lat" : 29.8666609,
                  "lng" : -90.14007389999999
               }
            }
         },
         "place_id" : "ChIJZYIRslSkIIYRtNMiXuhbBts",
         "types" : [ "locality", "political" ]
      }
   ],
   "status" : "OK"
},
    {
   "results" : [
      {
         "address_components" : [
            {
               "long_name" : "New Delhi",
               "short_name" : "New Delhi",
               "types" : [ "locality", "political" ]
            },
            {
               "long_name" : "Delhi",
               "short_name" : "DL",
               "types" : [ "administrative_area_level_1", "political" ]
            },
            {
               "long_name" : "India",
               "short_name" : "IN",
               "types" : [ "country", "political" ]
            }
         ],
         "formatted_address" : "New Delhi, Delhi, India",
         "geometry" : {
            "bounds" : {
               "northeast" : {
                  "lat" : 28.889816,
                  "lng" : 77.3418147
               },