[
    {
   "results" : [
      {
         "address_components" : [
            {
               "long_name" : "London",
               "short_name" : "London",
               "types" : [ "locality", "political" ]
            },
            {
               "long_name" : "Greater London",
               "short_name" : "Gt Lon",
               "types" : [ "administrative_area_level_2", "political" ]
            },
            {
               "long_name" : "England",
               "short_name" : "England",
               "types" : [ "administrative_area_level_1", "political" ]
            },
            {
               "long_name" : "United Kingdom",
               "short_name" : "GB",
               "types" : [ "country", "political" ]
            }
         ],
         "formatted_address" : "London, UK",
         "geometry" : {
            "bounds" : {
               "northeast" : {
                  "lat" : 51.6723432,
                  "lng" : 0.148271
               },
               "southwest" : {
                  "lat" : 51.38494009999999,
                  "lng" : -0.3514683
               }
            },
            "location" : {
               "lat" : 51.5073509,
               "lng" : -0.1277583
            },
            "location_type" : "APPROXIMATE",
            "viewport" : {
               "northeast" : {
                  "lat" : 51.6723432,
                  "lng" : 0.148271
               },
               "southwest" : {
                  "lat" : 51.38494009999999,
                  "lng" : -0.3514683
               }
            }
         },
         "place_id" : "ChIJdd4hrwug2EcRmSrV3Vo6llI",
         "types" : [ "locality", "political" ]
      }
   ],
   "status" : "OK"
},
    {
	"results": [{
		"address_components": [{
			"long_name": "Saint Petersburg",
			"short_name": "СПБ",
			"types": ["locality", "political"]
		}, {
			"long_name": "gorod Sankt-Peterburg",
			"short_name": "g. Sankt-Peterburg",
			"types": ["administrative_area_level_2", "political"]
		}, {
			"long_name": "Saint Petersburg",
			"short_name": "Saint Petersburg",
			"types": ["administrative_area_level_1", "political"]
		}, {
			"long_name": "Russia",
			"short_name": "RU",
			"types": ["country", "political"]
		}],
		"formatted_address": "St Petersburg, Russia",
		"geometry": {
			"bounds": {
				"northeast": {
					"lat": 60.089675,
					"lng": 30.559783
				},
				"southwest": {
					"lat": 59.74521590000001,
					"lng": 30.090332
				}
			},
			"location": {
				"lat": 59.9342802,
				"lng": 30.3350986
			},
			"location_type": "APPROXIMATE",
			"viewport": {
				"northeast": {
					"lat": 60.089675,
					"lng": 30.559783
				},
				"southwest": {
					"lat": 59.74521590000001,
					"lng": 30.090332
				}
			}
		},
		"place_id": "ChIJ7WVKx4w3lkYR_46Eqz9nx20",
		"types": ["locality", "political"]
	}],
	"status": "OK"
}, {
	"results": [{
		"address_components": [{
			"long_name": "Oraniyenbaumskaya Mel'",
			"short_name": "Oraniyenbaumskaya Mel'",
			"types": ["natural_feature", "establishment"]
		}, {
			"long_name": "Russia",
			"short_name": "RU",
			"types": ["country", "political"]
		}, {
			"long_name": "198412",
			"short_name": "198412",
			"types": ["postal_code"]
		}],
		"formatted_address": "Oraniyenbaumskaya Mel', Russia, 198412",
		"geometry": {
			"location": {
				"lat": 59.93333329999999,
				"lng": 29.7666667
			},
			"location_type": "APPROXIMATE",
			"viewport": {
				"northeast": {
					"lat": 59.9556867,
					"lng": 29.8306964
				},
				"southwest": {
					"lat": 59.9109648,
					"lng": 29.702637
				}
			}
		},
		"partial_match": true,
		"place_id": "ChIJ7bUHImpElkYRn30bNGJBp4Q",
		"types": ["natural_feature", "establishment"]
	}],
	"status": "OK"
}, {
	"results": [{
		"address_components": [{
			"long_name": "Peru",
			"short_name": "Peru",
			"types": ["locality", "political"]
		}, {
			"long_name": "Peru Township",
			"short_name": "Peru Township",
			"types": ["administrative_area_level_3", "political"]
		}, {
			"long_name": "Miami County",
			"short_name": "Miami County",
			"types": ["administrative_area_level_2", "political"]
		}, {
			"long_name": "Indiana",
			"short_name": "IN",
			"types": ["administrative_area_level_1", "political"]
		}, {
			"long_name": "United States",
			"short_name": "US",
			"types": ["country", "political"]
		}, {
			"long_name": "46970",
			"short_name": "46970",
			"types": ["postal_code"]
		}],
		"formatted_address": "Peru, IN 46970, USA",
		"geometry": {
			"bounds": {
				"northeast": {
					"lat": 40.7869989,
					"lng": -86.042211
				},
				"southwest": {
					"lat": 40.733768,
					"lng": -86.1354839
				}
			},
			"location": {
				"lat": 40.7536528,
				"lng": -86.0688811
			},
			"location_type": "APPROXIMATE",
			"viewport": {
				"northeast": {
					"lat": 40.7869989,
					"lng": -86.042211
				},
				"southwest": {
					"lat": 40.733768,
					"lng": -86.1354839
				}
			}
		},
		"place_id": "ChIJlzZmxjhoFIgRvUVtEEoeka4",
		"types": ["locality", "political"]
	}],
	"status": "OK"
}, {
	"results": [{
		"address_components": [{
			"long_name": "Mooringsport",
			"short_name": "Mooringsport",
			"types": ["locality", "political"]
		}, {
			"long_name": "1",
			"short_name": "1",
			"types": ["administrative_area_level_3", "political"]
		}, {
			"long_name": "Caddo Parish",
			"short_name": "Caddo Parish",
			"types": ["administrative_area_level_2", "political"]
		}, {
			"long_name": "Louisiana",
			"short_name": "LA",
			"types": ["administrative_area_level_1", "political"]
		}, {
			"long_name": "United States",
			"short_name": "US",
			"types": ["country", "political"]
		}, {
			"long_name": "71060",
			"short_name": "71060",
			"types": ["postal_code"]
		}],
		"formatted_address": "Mooringsport, LA 71060, USA",
		"geometry": {
			"bounds": {
				"northeast": {
					"lat": 32.6971779,
					"lng": -93.952333
				},
				"southwest": {
					"lat": 32.670015,
					"lng": -93.97119510000002
				}
			},
			"location": {
				"lat": 32.6876455,
				"lng": -93.96101499999999
			},
			"location_type": "APPROXIMATE",
			"viewport": {
				"northeast": {
					"lat": 32.6971779,
					"lng": -93.952333
				},
				"southwest": {
					"lat": 32.670015,
					"lng": -93.97119510000002
				}
			}
		},
		"place_id": "ChIJTfJREuy4NoYRf_q0ggTXImU",
		"types": ["locality", "political"]
	}],
	"status": "OK"
}, {
	"results": [{
		"address_components": [{
			"long_name": "Null",
			"short_name": "Null",
			"types": ["route"]
		}, {
			"long_name": "Lamont",
			"short_name": "Lamont",
			"types": ["neighborhood", "political"]
		}, {
			"long_name": "Jefferson County",
			"short_name": "Jefferson County",
			"types": ["administrative_area_level_2", "political"]
		}, {
			"long_name": "Florida",
			"short_name": "FL",
			"types": ["administrative_area_level_1", "political"]
		}, {
			"long_name": "United States",
			"short_name": "US",
			"types": ["country", "political"]
		}, {
			"long_name": "32336",
			"short_name": "32336",
			"types": ["postal_code"]
		}],
		"formatted_address": "Null, Lamont, FL 32336, USA",
		"geometry": {
			"bounds": {
				"northeast": {
					"lat": 30.4568673,
					"lng": -83.90012349999999
				},
				"southwest": {
					"lat": 30.4563915,
					"lng": -83.90030329999999
				}
			},
			"location": {
				"lat": 30.4566045,
				"lng": -83.9002349
			},
			"location_type": "GEOMETRIC_CENTER",
			"viewport": {
				"northeast": {
					"lat": 30.4579783802915,
					"lng": -83.89886441970849
				},
				"southwest": {
					"lat": 30.4552804197085,
					"lng": -83.9015623802915
				}
			}
		},
		"place_id": "ChIJuw0fzSI_7IgRD5EGtCwf7Dk",
		"types": ["route"]
	}, {
		"address_components": [{
			"long_name": "<Null>",
			"short_name": "<Null>",
			"types": ["subpremise"]
		}, {
			"long_name": "413",
			"short_name": "413",
			"types": ["street_number"]
		}, {
			"long_name": "South 3rd Street",
			"short_name": "S 3rd St",
			"types": ["route"]
		}, {
			"long_name": "McCall",
			"short_name": "McCall",
			"types": ["locality", "political"]
		}, {
			"long_name": "Valley County",
			"short_name": "Valley County",
			"types": ["administrative_area_level_2", "political"]
		}, {
			"long_name": "Idaho",
			"short_name": "ID",
			"types": ["administrative_area_level_1", "political"]
		}, {
			"long_name": "United States",
			"short_name": "US",
			"types": ["country", "political"]
		}, {
			"long_name": "83638",
			"short_name": "83638",
			"types": ["postal_code"]
		}],
		"formatted_address": "413 S 3rd St <Null>, McCall, ID 83638, USA",
		"geometry": {
			"location": {
				"lat": 44.8923555,
				"lng": -116.0934513
			},
			"location_type": "ROOFTOP",
			"viewport": {
				"northeast": {
					"lat": 44.8937044802915,
					"lng": -116.0921023197085
				},
				"southwest": {
					"lat": 44.8910065197085,
					"lng": -116.0948002802915
				}
			}
		},
		"place_id": "ChIJyxZ5IfpmplQRSna4ZxyMEnM",
		"types": ["street_address"]
	}, {
		"address_components": [{
			"long_name": "<Null>",
			"short_name": "<Null>",
			"types": ["natural_feature", "establishment"]
		}, {
			"long_name": "La Plata County",
			"short_name": "La Plata County",
			"types": ["administrative_area_level_2", "political"]
		}, {
			"long_name": "Colorado",
			"short_name": "CO",
			"types": ["administrative_area_level_1", "political"]
		}, {
			"long_name": "United States",
			"short_name": "US",
			"types": ["country", "political"]
		}],
		"formatted_address": "<Null>, Colorado, USA",
		"geometry": {
			"bounds": {
				"northeast": {
					"lat": 37.1354974,
					"lng": -107.8919098
				},
				"southwest": {
					"lat": 37.1286632,
					"lng": -107.9020196
				}
			},
			"location": {
				"lat": 37.1320803,
				"lng": -107.8969647
			},
			"location_type": "APPROXIMATE",
			"viewport": {
				"northeast": {
					"lat": 37.1354974,
					"lng": -107.8919098
				},
				"southwest": {
					"lat": 37.1286632,
					"lng": -107.9020196
				}
			}
		},
		"place_id": "ChIJsbM2_gwFPIcRV3hnSN9akqc",
		"types": ["natural_feature", "establishment"]
	}, {
		"address_components": [{
			"long_name": "Null",
			"short_name": "Null",
			"types": ["route"]
		}, {
			"long_name": "Beals",
			"short_name": "Beals",
			"types": ["locality", "political"]
		}, {
			"long_name": "Washington County",
			"short_name": "Washington County",
			"types": ["administrative_area_level_2", "political"]
		}, {
			"long_name": "Maine",
			"short_name": "ME",
			"types": ["administrative_area_level_1", "political"]
		}, {
			"long_name": "United States",
			"short_name": "US",
			"types": ["country", "political"]
		}, {
			"long_name": "04649",
			"short_name": "04649",
			"types": ["postal_code"]
		}],
		"formatted_address": "Null, Beals, ME 04649, USA",
		"geometry": {
			"location": {
				"lat": 44.5164491,
				"lng": -67.5844576
			},
			"location_type": "GEOMETRIC_CENTER",
			"viewport": {
				"northeast": {
					"lat": 44.51779808029149,
					"lng": -67.5831086197085
				},
				"southwest": {
					"lat": 44.51510011970849,
					"lng": -67.5858065802915
				}
			}
		},
		"place_id": "ChIJ7dcGvl0pqUwRaxuCZyrP2LA",
		"types": ["route"]
	}, {
		"address_components": [{
			"long_name": "<Null>",
			"short_name": "<Null>",
			"types": ["natural_feature", "establishment"]
		}, {
			"long_name": "San Juan County",
			"short_name": "San Juan County",
			"types": ["administrative_area_level_2", "political"]
		}, {
			"long_name": "New Mexico",
			"short_name": "NM",
			"types": ["administrative_area_level_1", "political"]
		}, {
			"long_name": "United States",
			"short_name": "US",
			"types": ["country", "political"]
		}, {
			"long_name": "87410",
			"short_name": "87410",
			"types": ["postal_code"]
		}],
		"formatted_address": "<Null>, New Mexico 87410, USA",
		"geometry": {
			"bounds": {
				"northeast": {
					"lat": 36.792276,
					"lng": -108.0300368
				},
				"southwest": {
					"lat": 36.7917928,
					"lng": -108.0301394
				}
			},
			"location": {
				"lat": 36.7920344,
				"lng": -108.0300881
			},
			"location_type": "APPROXIMATE",
			"viewport": {
				"northeast": {
					"lat": 36.79338338029149,
					"lng": -108.0287391197085
				},
				"southwest": {
					"lat": 36.7906854197085,
					"lng": -108.0314370802915
				}
			}
		},
		"place_id": "ChIJPaza-Mt3PIcRhgSZPNkT9N8",
		"types": ["natural_feature", "establishment"]
	}],
	"status": "OK"
}, {
	"results": [{
		"address_components": [{
			"long_name": "Null Road",
			"short_name": "Null Rd",
			"types": ["route"]
		}, {
			"long_name": "Lindale",
			"short_name": "Lindale",
			"types": ["locality", "political"]
		}, {
			"long_name": "Smith County",
			"short_name": "Smith County",
			"types": ["administrative_area_level_2", "political"]
		}, {
			"long_name": "Texas",
			"short_name": "TX",
			"types": ["administrative_area_level_1", "political"]
		}, {
			"long_name": "United States",
			"short_name": "US",
			"types": ["country", "political"]
		}, {
			"long_name": "75771",
			"short_name": "75771",
			"types": ["postal_code"]
		}],
		"formatted_address": "Null Rd, Lindale, TX 75771, USA",
		"geometry": {
			"bounds": {
				"northeast": {
					"lat": 32.5355431,
					"lng": -95.31221450000001
				},
				"southwest": {
					"lat": 32.5266014,
					"lng": -95.3126374
				}
			},
			"location": {
				"lat": 32.5309117,
				"lng": -95.31221450000001
			},
			"location_type": "GEOMETRIC_CENTER",
			"viewport": {
				"northeast": {
					"lat": 32.5355431,
					"lng": -95.3110769697085
				},
				"southwest": {
					"lat": 32.5266014,
					"lng": -95.3137749302915
				}
			}
		},
		"partial_match": true,
		"place_id": "ChIJlziS5ljBSYYRIMeO3etwATk",
		"types": ["route"]
	}, {
		"address_components": [{
			"long_name": "Null Street",
			"short_name": "Null St",
			"types": ["route"]
		}, {
			"long_name": "Groveton",
			"short_name": "Groveton",
			"types": ["locality", "political"]
		}, {
			"long_name": "Trinity County",
			"short_name": "Trinity County",
			"types": ["administrative_area_level_2", "political"]
		}, {
			"long_name": "Texas",
			"short_name": "TX",
			"types": ["administrative_area_level_1", "political"]
		}, {
			"long_name": "United States",
			"short_name": "US",
			"types": ["country", "political"]
		}, {
			"long_name": "75845",
			"short_name": "75845",
			"types": ["postal_code"]
		}],
		"formatted_address": "Null St, Groveton, TX 75845, USA",
		"geometry": {
			"bounds": {
				"northeast": {
					"lat": 31.04846,
					"lng": -95.1246925
				},
				"southwest": {
					"lat": 31.04738339999999,
					"lng": -95.1264147
				}
			},
			"location": {
				"lat": 31.04846,
				"lng": -95.1246925
			},
			"location_type": "GEOMETRIC_CENTER",
			"viewport": {
				"northeast": {
					"lat": 31.0492706802915,
					"lng": -95.1242046197085
				},
				"southwest": {
					"lat": 31.0465727197085,
					"lng": -95.1269025802915
				}
			}
		},
		"partial_match": true,
		"place_id": "ChIJT_1qjUCJR4YRmM0QD9e0DMk",
		"types": ["route"]
	}, {
		"address_components": [{
			"long_name": "Null Heights",
			"short_name": "Null Heights",
			"types": ["route"]
		}, {
			"long_name": "Far West Side",
			"short_name": "Far West Side",
			"types": ["neighborhood", "political"]
		}, {
			"long_name": "San Antonio",
			"short_name": "San Antonio",
			"types": ["locality", "political"]
		}, {
			"long_name": "Bexar County",
			"short_name": "Bexar County",
			"types": ["administrative_area_level_2", "political"]
		}, {
			"long_name": "Texas",
			"short_name": "TX",
			"types": ["administrative_area_level_1", "political"]
		}, {
			"long_name": "United States",
			"short_name": "US",
			"types": ["country", "political"]
		}, {
			"long_name": "78254",
			"short_name": "78254",
			"types": ["postal_code"]
		}],
		"formatted_address": "Null Heights, San Antonio, TX 78254, USA",
		"geometry": {
			"bounds": {
				"northeast": {
					"lat": 29.5230313,
					"lng": -98.6603428
				},
				"southwest": {
					"lat": 29.522327,
					"lng": -98.6610932
				}
			},
			"location": {
				"lat": 29.52270099999999,
				"lng": -98.6608828
			},
			"location_type": "GEOMETRIC_CENTER",
			"viewport": {
				"northeast": {
					"lat": 29.5240281302915,
					"lng": -98.65936901970849
				},
				"southwest": {
					"lat": 29.5213301697085,
					"lng": -98.6620669802915
				}
			}
		},
		"partial_match": true,
		"place_id": "ChIJxwhz5QloXIYRbMYxQpnstpQ",
		"types": ["route"]
	}, {
		"address_components": [{
			"long_name": "Null Court",
			"short_name": "Null Ct",
			"types": ["route"]
		}, {
			"long_name": "Memorial Northwest",
			"short_name": "Memorial Northwest",
			"types": ["neighborhood", "political"]
		}, {
			"long_name": "Spring",
			"short_name": "Spring",
			"types": ["locality", "political"]
		}, {
			"long_name": "Harris County",
			"short_name": "Harris County",
			"types": ["administrative_area_level_2", "political"]
		}, {
			"long_name": "Texas",
			"short_name": "TX",
			"types": ["administrative_area_level_1", "political"]
		}, {
			"long_name": "United States",
			"short_name": "US",
			"types": ["country", "political"]
		}, {
			"long_name": "77379",
			"short_name": "77379",
			"types": ["postal_code"]
		}],
		"formatted_address": "Null Ct, Spring, TX 77379, USA",
		"geometry": {
			"bounds": {
				"northeast": {
					"lat": 30.03407,
					"lng": -95.5477155
				},
				"southwest": {
					"lat": 30.032856,
					"lng": -95.549485
				}
			},
			"location": {
				"lat": 30.0331999,
				"lng": -95.54911050000001
			},
			"location_type": "GEOMETRIC_CENTER",
			"viewport": {
				"northeast": {
					"lat": 30.0348119802915,
					"lng": -95.5472512697085
				},
				"southwest": {
					"lat": 30.0321140197085,
					"lng": -95.5499492302915
				}
			}
		},
		"partial_match": true,
		"place_id": "ChIJc_Q8_k7NQIYRwhe0X6OLP3M",
		"types": ["route"]
	}, {
		"address_components": [{
			"long_name": "Null Tank",
			"short_name": "Null Tank",
			"types": ["natural_feature", "establishment"]
		}, {
			"long_name": "Kinney County",
			"short_name": "Kinney County",
			"types": ["administrative_area_level_2", "political"]
		}, {
			"long_name": "Texas",
			"short_name": "TX",
			"types": ["administrative_area_level_1", "political"]
		}, {
			"long_name": "United States",
			"short_name": "US",
			"types": ["country", "political"]
		}, {
			"long_name": "78832",
			"short_name": "78832",
			"types": ["postal_code"]
		}],
		"formatted_address": "Null Tank, Texas 78832, USA",
		"geometry": {
			"bounds": {
				"northeast": {
					"lat": 29.1762222,
					"lng": -100.487692
				},
				"southwest": {
					"lat": 29.1732078,
					"lng": -100.4895274
				}
			},
			"location": {
				"lat": 29.1747212,
				"lng": -100.4883123
			},
			"location_type": "APPROXIMATE",
			"viewport": {
				"northeast": {
					"lat": 29.1762222,
					"lng": -100.4872607197085
				},
				"southwest": {
					"lat": 29.1732078,
					"lng": -100.4899586802915
				}
			}
		},
		"partial_match": true,
		"place_id": "ChIJ7WCmwSZ7X4YRI5x_u6IOhKU",
		"types": ["natural_feature", "establishment"]
	}],
	"status": "OK"
}, {
	"results": [{
		"address_components": [{
			"long_name": "Omaha",
			"short_name": "Omaha",
			"types": ["locality", "political"]
		}, {
			"long_name": "Douglas County",
			"short_name": "Douglas County",
			"types": ["administrative_area_level_2", "political"]
		}, {
			"long_name": "Nebraska",
			"short_name": "NE",
			"types": ["administrative_area_level_1", "political"]
		}, {
			"long_name": "United States",
			"short_name": "US",
			"types": ["country", "political"]
		}],
		"formatted_address": "Omaha, NE, USA",
		"geometry": {
			"bounds": {
				"northeast": {
					"lat": 41.39317,
					"lng": -95.871141
				},
				"southwest": {
					"lat": 41.1905479,
					"lng": -96.2913561
				}
			},
			"location": {
				"lat": 41.2523634,
				"lng": -95.99798829999999
			},
			"location_type": "APPROXIMATE",
			"viewport": {
				"northeast": {
					"lat": 41.39317,
					"lng": -95.871141
				},
				"southwest": {
					"lat": 41.1905479,
					"lng": -96.2913561
				}
			}
		},
		"place_id": "ChIJ7fwMtciNk4cRBLY3rk9NQkY",
		"types": ["locality", "political"]
	}],
	"status": "OK"
}, {
	"results": [{
		"address_components": [{
			"long_name": "Pittsburgh",
			"short_name": "Pitts",
			"types": ["locality", "political"]
		}, {
			"long_name": "Allegheny County",
			"short_name": "Allegheny County",
			"types": ["administrative_area_level_2", "political"]
		}, {
			"long_name": "Pennsylvania",
			"short_name": "PA",
			"types": ["administrative_area_level_1", "political"]
		}, {
			"long_name": "United States",
			"short_name": "US",
			"types": ["country", "political"]
		}],
		"formatted_address": "Pittsburgh, PA, USA",
		"geometry": {
			"bounds": {
				"northeast": {
					"lat": 40.501368,
					"lng": -79.8657231
				},
				"southwest": {
					"lat": 40.3613689,
					"lng": -80.0952779
				}
			},
			"location": {
				"lat": 40.44062479999999,
				"lng": -79.9958864
			},
			"location_type": "APPROXIMATE",
			"viewport": {
				"northeast": {
					"lat": 40.501368,
					"lng": -79.8657231
				},
				"southwest": {
					"lat": 40.3613689,
					"lng": -80.0952779
				}
			}
		},
		"place_id": "ChIJA4UGSG_xNIgRNBuiWqEV-Y0",
		"types": ["locality", "political"]
	}],
	"status": "OK"
}, {
	"results": [{
		"address_components": [{
			"long_name": "Mound",
			"short_name": "Mound",
			"types": ["locality", "political"]
		}, {
			"long_name": "Hennepin County",
			"short_name": "Hennepin County",
			"types": ["administrative_area_level_2", "political"]
		}, {
			"long_name": "Minnesota",
			"short_name": "MN",
			"types": ["administrative_area_level_1", "political"]
		}, {
			"long_name": "United States",
			"short_name": "US",
			"types": ["country", "political"]
		}],
		"formatted_address": "Mound, MN, USA",
		"geometry": {
			"bounds": {
				"northeast": {
					"lat": 44.9511312,
					"lng": -93.6305359
				},
				"southwest": {
					"lat": 44.9163799,
					"lng": -93.693299
				}
			},
			"location": {
				"lat": 44.9366295,
				"lng": -93.66607189999999
			},
			"location_type": "APPROXIMATE",
			"viewport": {
				"northeast": {
					"lat": 44.9511312,
					"lng": -93.6305359
				},
				"southwest": {
					"lat": 44.9163799,
					"lng": -93.693299
				}
			}
		},
		"place_id": "ChIJcWxPfgIC9ocRBF12Ne5cwiE",
		"types": ["locality", "political"]
	}],
	"status": "OK"
}, {
	"results": [{
		"address_components": [{
			"long_name": "Clarinda",
			"short_name": "Clarinda",
			"types": ["locality", "political"]
		}, {
			"long_name": "Nodaway",
			"short_name": "Nodaway",
			"types": ["administrative_area_level_3", "political"]
		}, {
			"long_name": "Page County",
			"short_name": "Page County",
			"types": ["administrative_area_level_2", "political"]
		}, {
			"long_name": "Iowa",
			"short_name": "IA",
			"types": ["administrative_area_level_1", "political"]
		}, {
			"long_name": "United States",
			"short_name": "US",
			"types": ["country", "political"]
		}, {
			"long_name": "51632",
			"short_name": "51632",
			"types": ["postal_code"]
		}],
		"formatted_address": "Clarinda, IA 51632, USA",
		"geometry": {
			"bounds": {
				"northeast": {
					"lat": 40.764229,
					"lng": -95.006845
				},
				"southwest": {
					"lat": 40.713642,
					"lng": -95.061199
				}
			},
			"location": {
				"lat": 40.7419352,
				"lng": -95.038313
			},
			"location_type": "APPROXIMATE",
			"viewport": {
				"northeast": {
					"lat": 40.764229,
					"lng": -95.006845
				},
				"southwest": {
					"lat": 40.713642,
					"lng": -95.061199
				}
			}
		},
		"place_id": "ChIJO4xdLBcz64cRG3MJ6BiYx-s",
		"types": ["locality", "political"]
	}],
	"status": "OK"
}, {
	"results": [{
		"address_components": [{
			"long_name": "Grand Rapids",
			"short_name": "Grand Rapids",
			"types": ["locality", "political"]
		}, {
			"long_name": "Grand Rapids township",
			"short_name": "Grand Rapids Township",
			"types": ["administrative_area_level_3", "political"]
		}, {
			"long_name": "Itasca County",
			"short_name": "Itasca County",
			"types": ["administrative_area_level_2", "political"]
		}, {
			"long_name": "Minnesota",
			"short_name": "MN",
			"types": ["administrative_area_level_1", "political"]
		}, {
			"long_name": "United States",
			"short_name": "US",
			"types": ["country", "political"]
		}, {
			"long_name": "55744",
			"short_name": "55744",
			"types": ["postal_code"]
		}],
		"formatted_address": "Grand Rapids, MN 55744, USA",
		"geometry": {
			"bounds": {
				"northeast": {
					"lat": 47.26092509999999,
					"lng": -93.4933439
				},
				"southwest": {
					"lat": 47.1953868,
					"lng": -93.5768201
				}
			},
			"location": {
				"lat": 47.2371658,
				"lng": -93.53021419999999
			},
			"location_type": "APPROXIMATE",
			"viewport": {
				"northeast": {
					"lat": 47.26092509999999,
					"lng": -93.4933439
				},
				"southwest": {
					"lat": 47.1953868,
					"lng": -93.5768201
				}
			}
		},
		"place_id": "ChIJT2X6OuOPsFIRMWGF6FjdxLs",
		"types": ["locality", "political"]
	}, {
		"address_components": [{
			"long_name": "Grand Marais",
			"short_name": "Grand Marais",
			"types": ["locality", "political"]
		}, {
			"long_name": "Cook County",
			"short_name": "Cook County",
			"types": ["administrative_area_level_2", "political"]
		}, {
			"long_name": "Minnesota",
			"short_name": "MN",
			"types": ["administrative_area_level_1", "political"]
		}, {
			"long_name": "United States",
			"short_name": "US",
			"types": ["country", "political"]
		}],
		"formatted_address": "Grand Marais, MN, USA",
		"geometry": {
			"bounds": {
				"northeast": {
					"lat": 47.77565389999999,
					"lng": -90.31324289999999
				},
				"southwest": {
					"lat": 47.7439229,
					"lng": -90.36659700000001
				}
			},
			"location": {
				"lat": 47.7504469,
				"lng": -90.3342727
			},
			"location_type": "APPROXIMATE",
			"viewport": {
				"northeast": {
					"lat": 47.77565389999999,
					"lng": -90.31324289999999
				},
				"southwest": {
					"lat": 47.7439229,
					"lng": -90.36659700000001
				}
			}
		},
		"place_id": "ChIJQwFgGAbAp1IRwpPVaisDYRU",
		"types": ["locality", "political"]
	}],
	"status": "OK"
}, {
	"results": [{
		"address_components": [{
			"long_name": "Hoboken",
			"short_name": "Hoboken",
			"types": ["locality", "political"]
		}, {
			"long_name": "Hudson County",
			"short_name": "Hudson County",
			"types": ["administrative_area_level_2", "political"]
		}, {
			"long_name": "New Jersey",
			"short_name": "NJ",
			"types": ["administrative_area_level_1", "political"]
		}, {
			"long_name": "United States",
			"short_name": "US",
			"types": ["country", "political"]
		}],
		"formatted_address": "Hoboken, NJ, USA",
		"geometry": {
			"bounds": {
				"northeast": {
					"lat": 40.7590989,
					"lng": -74.0204333
				},
				"southwest": {
					"lat": 40.7334348,
					"lng": -74.044117
				}
			},
			"location": {
				"lat": 40.7439905,
				"lng": -74.0323626
			},
			"location_type": "APPROXIMATE",
			"viewport": {
				"northeast": {
					"lat": 40.7590989,
					"lng": -74.0204333
				},
				"southwest": {
					"lat": 40.7334348,
					"lng": -74.044117
				}
			}
		},
		"place_id": "ChIJ0TMVjWBXwokRh783EWrKtkQ",
		"types": ["locality", "political"]
	}],
	"status": "OK"
}, {
	"results": [{
		"address_components": [{
			"long_name": "Mazatlán",
			"short_name": "Mazatlán",
			"types": ["locality", "political"]
		}, {
			"long_name": "Mazatlán",
			"short_name": "Mazatlán",
			"types": ["administrative_area_level_2", "political"]
		}, {
			"long_name": "Sinaloa",
			"short_name": "Sin.",
			"types": ["administrative_area_level_1", "political"]
		}, {
			"long_name": "Mexico",
			"short_name": "MX",
			"types": ["country", "political"]
		}],
		"formatted_address": "Mazatlán, Sin., Mexico",
		"geometry": {
			"bounds": {
				"northeast": {
					"lat": 23.317596,
					"lng": -106.3503905
				},
				"southwest": {
					"lat": 23.1759831,
					"lng": -106.4939296
				}
			},
			"location": {
				"lat": 23.2494148,
				"lng": -106.4111425
			},
			"location_type": "APPROXIMATE",
			"viewport": {
				"northeast": {
					"lat": 23.317596,
					"lng": -106.3503905
				},
				"southwest": {
					"lat": 23.1759831,
					"lng": -106.4939296
				}
			}
		},
		"place_id": "ChIJwTcYaEFTn4YRsnI88arEpGI",
		"types": ["locality", "political"]
	}],
	"status": "OK"
}, {
	"results": [{
		"address_components": [{
			"long_name": "Newport News",
			"short_name": "Newport News",
			"types": ["locality", "political"]
		}, {
			"long_name": "Virginia",
			"short_name": "VA",
			"types": ["administrative_area_level_1", "political"]
		}, {
			"long_name": "United States",
			"short_name": "US",
			"types": ["country", "political"]
		}],
		"formatted_address": "Newport News, VA, USA",
		"geometry": {
			"bounds": {
				"northeast": {
					"lat": 37.220645,
					"lng": -76.3875948
				},
				"southwest": {
					"lat": 36.9588602,
					"lng": -76.62794730000002
				}
			},
			"location": {
				"lat": 37.0870821,
				"lng": -76.4730122
			},
			"location_type": "APPROXIMATE",
			"viewport": {
				"northeast": {
					"lat": 37.220645,
					"lng": -76.3875948
				},
				"southwest": {
					"lat": 36.9588602,
					"lng": -76.62794730000002
				}
			}
		},
		"place_id": "ChIJ2VZNcIJ7sIkRG8vIA-xVfuw",
		"types": ["locality", "political"]
	}],
	"status": "OK"
}, {
	"results": [{
		"address_components": [{
			"long_name": "Varanasi",
			"short_name": "Varanasi",
			"types": ["locality", "political"]
		}, {
			"long_name": "Varanasi",
			"short_name": "Varanasi",
			"types": ["administrative_area_level_2", "political"]
		}, {
			"long_name": "Uttar Pradesh",
			"short_name": "UP",
			"types": ["administrative_area_level_1", "political"]
		}, {
			"long_name": "India",
			"short_name": "IN",
			"types": ["country", "political"]
		}],
		"formatted_address": "Varanasi, Uttar Pradesh, India",
		"geometry": {
			"bounds": {
				"northeast": {
					"lat": 25.3956651,
					"lng": 83.0607605
				},
				"southwest": {
					"lat": 25.2458603,
					"lng": 82.9214574
				}
			},
			"location": {
				"lat": 25.3176452,
				"lng": 82.9739144
			},
			"location_type": "APPROXIMATE",
			"viewport": {
				"northeast": {
					"lat": 25.3956651,
					"lng": 83.0607605
				},
				"southwest": {
					"lat": 25.2458603,
					"lng": 82.9214574
				}
			}
		},
		"place_id": "ChIJTc_rb7ctjjkRtfA_hRAXE2g",
		"types": ["locality", "political"]
	}],
	"status": "OK"
}, {
	"results": [{
		"address_components": [{
			"long_name": "Montgomery",
			"short_name": "Montgomery",
			"types": ["locality", "political"]
		}, {
			"long_name": "Montgomery County",
			"short_name": "Montgomery County",
			"types": ["administrative_area_level_2", "political"]
		}, {
			"long_name": "Alabama",
			"short_name": "AL",
			"types": ["administrative_area_level_1", "political"]
		}, {
			"long_name": "United States",
			"short_name": "US",
			"types": ["country", "political"]
		}],
		"formatted_address": "Montgomery, AL, USA",
		"geometry": {
			"bounds": {
				"northeast": {
					"lat": 32.4376769,
					"lng": -86.07220509999999
				},
				"southwest": {
					"lat": 32.249921,
					"lng": -86.4198699
				}
			},
			"location": {
				"lat": 32.3668052,
				"lng": -86.2999689
			},
			"location_type": "APPROXIMATE",
			"viewport": {
				"northeast": {
					"lat": 32.4376769,
					"lng": -86.07220509999999
				},
				"southwest": {
					"lat": 32.249921,
					"lng": -86.4198699
				}
			}
		},
		"place_id": "ChIJ-YHUsJSBjogR_4VCNR1RG44",
		"types": ["locality", "political"]
	}],
	"status": "OK"
}, {
	"results": [{
		"address_components": [{
			"long_name": "Kempsey",
			"short_name": "Kempsey",
			"types": ["locality", "political"]
		}, {
			"long_name": "New South Wales",
			"short_name": "NSW",
			"types": ["administrative_area_level_1", "political"]
		}, {
			"long_name": "Australia",
			"short_name": "AU",
			"types": ["country", "political"]
		}, {
			"long_name": "2440",
			"short_name": "2440",
			"types": ["postal_code"]
		}],
		"formatted_address": "Kempsey NSW 2440, Australia",
		"geometry": {
			"bounds": {
				"northeast": {
					"lat": -31.0381099,
					"lng": 152.8794733
				},
				"southwest": {
					"lat": -31.0869765,
					"lng": 152.831158
				}
			},
			"location": {
				"lat": -31.0800609,
				"lng": 152.8415928
			},
			"location_type": "APPROXIMATE",
			"viewport": {
				"northeast": {
					"lat": -31.0381099,
					"lng": 152.8794733
				},
				"southwest": {
					"lat": -31.0869765,
					"lng": 152.831158
				}
			}
		},
		"place_id": "ChIJOYFX0BPfnWsR8C1EkLQJBgU",
		"types": ["locality", "political"]
	}, {
		"address_components": [{
			"long_name": "Kempsey",
			"short_name": "Kempsey",
			"types": ["colloquial_area", "locality", "political"]
		}, {
			"long_name": "New South Wales",
			"short_name": "NSW",
			"types": ["administrative_area_level_1", "political"]
		}, {
			"long_name": "Australia",
			"short_name": "AU",
			"types": ["country", "political"]
		}, {
			"long_name": "2440",
			"short_name": "2440",
			"types": ["postal_code"]
		}],
		"formatted_address": "Kempsey NSW 2440, Australia",
		"geometry": {
			"bounds": {
				"northeast": {
					"lat": -31.03409,
					"lng": 152.9183801
				},
				"southwest": {
					"lat": -31.1631233,
					"lng": 152.7695246
				}
			},
			"location": {
				"lat": -31.1042485,
				"lng": 152.8382315
			},
			"location_type": "APPROXIMATE",
			"viewport": {
				"northeast": {
					"lat": -31.03409,
					"lng": 152.9183801
				},
				"southwest": {
					"lat": -31.1631233,
					"lng": 152.7695246
				}
			}
		},
		"place_id": "ChIJ6zk6F3Z1nmsR4JZDkLQJBgQ",
		"types": ["colloquial_area", "locality", "political"]
	}],
	"status": "OK"
}, {
	"results": [{
		"address_components": [{
			"long_name": "London",
			"short_name": "London",
			"types": ["locality", "political"]
		}, {
			"long_name": "Greater London",
			"short_name": "Gt Lon",
			"types": ["administrative_area_level_2", "political"]
		}, {
			"long_name": "England",
			"short_name": "England",
			"types": ["administrative_area_level_1", "political"]
		}, {
			"long_name": "United Kingdom",
			"short_name": "GB",
			"types": ["country", "political"]
		}],
		"formatted_address": "London, UK",
		"geometry": {
			"bounds": {
				"northeast": {
					"lat": 51.6723432,
					"lng": 0.148271
				},
				"southwest": {
					"lat": 51.38494009999999,
					"lng": -0.3514683
				}
			},
			"location": {
				"lat": 51.5073509,
				"lng": -0.1277583
			},
			"location_type": "APPROXIMATE",
			"viewport": {
				"northeast": {
					"lat": 51.6723432,
					"lng": 0.148271
				},
				"southwest": {
					"lat": 51.38494009999999,
					"lng": -0.3514683
				}
			}
		},
		"place_id": "ChIJdd4hrwug2EcRmSrV3Vo6llI",
		"types": ["locality", "political"]
	}],
	"status": "OK"
}, {
	"results": [{
		"address_components": [{
			"long_name": "New Orleans",
			"short_name": "New Orleans",
			"types": ["locality", "political"]
		}, {
			"long_name": "Orleans Parish",
			"short_name": "Orleans Parish",
			"types": ["administrative_area_level_2", "political"]
		}, {
			"long_name": "Louisiana",
			"short_name": "LA",
			"types": ["administrative_area_level_1", "political"]
		}, {
			"long_name": "United States",
			"short_name": "US",
			"types": ["country", "political"]
		}],
		"formatted_address": "New Orleans, LA, USA",
		"geometry": {
			"bounds": {
				"northeast": {
					"lat": 30.1748625,
					"lng": -89.6269311
				},
				"southwest": {
					"lat": 29.8666609,
					"lng": -90.14007389999999
				}
			},
			"location": {
				"lat": 29.95106579999999,
				"lng": -90.0715323
			},
			"location_type": "APPROXIMATE",
			"viewport": {
				"northeast": {
					"lat": 30.1748625,
					"lng": -89.6269311
				},
				"southwest": {
					"lat": 29.8666609,
					"lng": -90.14007389999999
				}
			}
		},
		"place_id": "ChIJZYIRslSkIIYRtNMiXuhbBts",
		"types": ["locality", "political"]
	}],
	"status": "OK"
}, {
	"results": [{
		"address_components": [{
			"long_name": "Null",
			"short_name": "Null",
			"types": ["route"]
		}, {
			"long_name": "Beals",
			"short_name": "Beals",
			"types": ["locality", "political"]
		}, {
			"long_name": "Washington County",
			"short_name": "Washington County",
			"types": ["administrative_area_level_2", "political"]
		}, {
			"long_name": "Maine",
			"short_name": "ME",
			"types": ["administrative_area_level_1", "political"]
		}, {
			"long_name": "United States",
			"short_name": "US",
			"types": ["country", "political"]
		}, {
			"long_name": "04649",
			"short_name": "04649",
			"types": ["postal_code"]
		}],
		"formatted_address": "Null, Beals, ME 04649, USA",
		"geometry": {
			"location": {
				"lat": 44.5164491,
				"lng": -67.5844576
			},
			"location_type": "GEOMETRIC_CENTER",
			"viewport": {
				"northeast": {
					"lat": 44.51779808029149,
					"lng": -67.5831086197085
				},
				"southwest": {
					"lat": 44.51510011970849,
					"lng": -67.5858065802915
				}
			}
		},
		"place_id": "ChIJ7dcGvl0pqUwRaxuCZyrP2LA",
		"types": ["route"]
	}],
	"status": "OK"
}, {
	"results": [{
		"address_components": [{
			"long_name": "Buenos Aires",
			"short_name": "CABA",
			"types": ["locality", "political"]
		}, {
			"long_name": "Autonomous City of Buenos Aires",
			"short_name": "CABA",
			"types": ["administrative_area_level_1", "political"]
		}, {
			"long_name": "Argentina",
			"short_name": "AR",
			"types": ["country", "political"]
		}],
		"formatted_address": "Buenos Aires, Autonomous City of Buenos Aires, Argentina",
		"geometry": {
			"bounds": {
				"northeast": {
					"lat": -34.5265464,
					"lng": -58.33518840000001
				},
				"southwest": {
					"lat": -34.7051011,
					"lng": -58.5314522
				}
			},
			"location": {
				"lat": -34.6036844,
				"lng": -58.3815591
			},
			"location_type": "APPROXIMATE",
			"viewport": {
				"northeast": {
					"lat": -34.5265464,
					"lng": -58.33518840000001
				},
				"southwest": {
					"lat": -34.7051011,
					"lng": -58.5314522
				}
			}
		},
		"place_id": "ChIJvQz5TjvKvJURh47oiC6Bs6A",
		"types": ["locality", "political"]
	}],
	"status": "OK"
}, {
	"results": [{
		"address_components": [{
			"long_name": "Applewood Close",
			"short_name": "Applewood Close",
			"types": ["route"]
		}, {
			"long_name": "Swords",
			"short_name": "Swords",
			"types": ["locality", "political"]
		}, {
			"long_name": "Fingal",
			"short_name": "Fingal",
			"types": ["administrative_area_level_2", "political"]
		}, {
			"long_name": "Dublin",
			"short_name": "Dublin",
			"types": ["administrative_area_level_1", "political"]
		}, {
			"long_name": "Ireland",
			"short_name": "IE",
			"types": ["country", "political"]
		}],
		"formatted_address": "Applewood Close, Swords, Co. Dublin, Ireland",
		"geometry": {
			"bounds": {
				"northeast": {
					"lat": 53.4708147,
					"lng": -6.2283066
				},
				"southwest": {
					"lat": 53.4699036,
					"lng": -6.230456999999999
				}
			},
			"location": {
				"lat": 53.4703735,
				"lng": -6.229307599999999
			},
			"location_type": "GEOMETRIC_CENTER",
			"viewport": {
				"northeast": {
					"lat": 53.4717081302915,
					"lng": -6.228032819708497
				},
				"southwest": {
					"lat": 53.4690101697085,
					"lng": -6.230730780291501
				}
			}
		},
		"partial_match": true,
		"place_id": "ChIJzxW6jNwQZ0gRNt205tPXyPQ",
		"types": ["route"]
	}],
	"status": "OK"
}, {
	"results": [{
		"address_components": [{
			"long_name": "Cotton Plant",
			"short_name": "Cotton Plant",
			"types": ["locality", "political"]
		}, {
			"long_name": "Cotton Plant Township",
			"short_name": "Cotton Plant Township",
			"types": ["administrative_area_level_3", "political"]
		}, {
			"long_name": "Woodruff County",
			"short_name": "Woodruff County",
			"types": ["administrative_area_level_2", "political"]
		}, {
			"long_name": "Arkansas",
			"short_name": "AR",
			"types": ["administrative_area_level_1", "political"]
		}, {
			"long_name": "United States",
			"short_name": "US",
			"types": ["country", "political"]
		}, {
			"long_name": "72036",
			"short_name": "72036",
			"types": ["postal_code"]
		}],
		"formatted_address": "Cotton Plant, AR 72036, USA",
		"geometry": {
			"bounds": {
				"northeast": {
					"lat": 35.014339,
					"lng": -91.2434289
				},
				"southwest": {
					"lat": 34.998478,
					"lng": -91.2624589
				}
			},
			"location": {
				"lat": 35.0081476,
				"lng": -91.2512373
			},
			"location_type": "APPROXIMATE",
			"viewport": {
				"northeast": {
					"lat": 35.014339,
					"lng": -91.2434289
				},
				"southwest": {
					"lat": 34.998478,
					"lng": -91.2624589
				}
			}
		},
		"place_id": "ChIJ820lVh5j04cRy6BVPXuY8wc",
		"types": ["locality", "political"]
	}],
	"status": "OK"
}, {
	"results": [{
		"address_components": [{
			"long_name": "Applewood Close",
			"short_name": "Applewood Close",
			"types": ["route"]
		}, {
			"long_name": "Swords",
			"short_name": "Swords",
			"types": ["locality", "political"]
		}, {
			"long_name": "Fingal",
			"short_name": "Fingal",
			"types": ["administrative_area_level_2", "political"]
		}, {
			"long_name": "Dublin",
			"short_name": "Dublin",
			"types": ["administrative_area_level_1", "political"]
		}, {
			"long_name": "Ireland",
			"short_name": "IE",
			"types": ["country", "political"]
		}],
		"formatted_address": "Applewood Close, Swords, Co. Dublin, Ireland",
		"geometry": {
			"bounds": {
				"northeast": {
					"lat": 53.4708147,
					"lng": -6.2283066
				},
				"southwest": {
					"lat": 53.4699036,
					"lng": -6.230456999999999
				}
			},
			"location": {
				"lat": 53.4703735,
				"lng": -6.229307599999999
			},
			"location_type": "GEOMETRIC_CENTER",
			"viewport": {
				"northeast": {
					"lat": 53.4717081302915,
					"lng": -6.228032819708497
				},
				"southwest": {
					"lat": 53.4690101697085,
					"lng": -6.230730780291501
				}
			}
		},
		"partial_match": true,
		"place_id": "ChIJzxW6jNwQZ0gRNt205tPXyPQ",
		"types": ["route"]
	}],
	"status": "OK"
}, {
	"results": [{
		"address_components": [{
			"long_name": "Munich",
			"short_name": "M",
			"types": ["locality", "political"]
		}, {
			"long_name": "Upper Bavaria",
			"short_name": "Upper Bavaria",
			"types": ["administrative_area_level_2", "political"]
		}, {
			"long_name": "Bavaria",
			"short_name": "BY",
			"types": ["administrative_area_level_1", "political"]
		}, {
			"long_name": "Germany",
			"short_name": "DE",
			"types": ["country", "political"]
		}],
		"formatted_address": "Munich, Germany",
		"geometry": {
			"bounds": {
				"northeast": {
					"lat": 48.2482197,
					"lng": 11.7228755
				},
				"southwest": {
					"lat": 48.0616018,
					"lng": 11.360796
				}
			},
			"location": {
				"lat": 48.1351253,
				"lng": 11.5819806
			},
			"location_type": "APPROXIMATE",
			"viewport": {
				"northeast": {
					"lat": 48.2482197,
					"lng": 11.7228755
				},
				"southwest": {
					"lat": 48.0616018,
					"lng": 11.360796
				}
			}
		},
		"place_id": "ChIJ2V-Mo_l1nkcRfZixfUq4DAE",
		"types": ["locality", "political"]
	}],
	"status": "OK"
}, {
	"results": [{
		"address_components": [{
			"long_name": "Chattanooga",
			"short_name": "Chattanooga",
			"types": ["locality", "political"]
		}, {
			"long_name": "Hamilton County",
			"short_name": "Hamilton County",
			"types": ["administrative_area_level_2", "political"]
		}, {
			"long_name": "Tennessee",
			"short_name": "TN",
			"types": ["administrative_area_level_1", "political"]
		}, {
			"long_name": "United States",
			"short_name": "US",
			"types": ["country", "political"]
		}],
		"formatted_address": "Chattanooga, TN, USA",
		"geometry": {
			"bounds": {
				"northeast": {
					"lat": 35.2136671,
					"lng": -85.0517979
				},
				"southwest": {
					"lat": 34.9829239,
					"lng": -85.425584
				}
			},
			"location": {
				"lat": 35.0456297,
				"lng": -85.3096801
			},
			"location_type": "APPROXIMATE",
			"viewport": {
				"northeast": {
					"lat": 35.2136671,
					"lng": -85.0517979
				},
				"southwest": {
					"lat": 34.9829239,
					"lng": -85.425584
				}
			}
		},
		"place_id": "ChIJheeDikBgYIgRqiiHiR8mcSQ",
		"types": ["locality", "political"]
	}],
	"status": "OK"
}, {
	"results": [{
		"address_components": [{
			"long_name": "Compton",
			"short_name": "Compton",
			"types": ["locality", "political"]
		}, {
			"long_name": "Los Angeles County",
			"short_name": "Los Angeles County",
			"types": ["administrative_area_level_2", "political"]
		}, {
			"long_name": "California",
			"short_name": "CA",
			"types": ["administrative_area_level_1", "political"]
		}, {
			"long_name": "United States",
			"short_name": "US",
			"types": ["country", "political"]
		}],
		"formatted_address": "Compton, CA, USA",
		"geometry": {
			"bounds": {
				"northeast": {
					"lat": 33.923418,
					"lng": -118.1799621
				},
				"southwest": {
					"lat": 33.863086,
					"lng": -118.2636591
				}
			},
			"location": {
				"lat": 33.8958492,
				"lng": -118.2200712
			},
			"location_type": "APPROXIMATE",
			"viewport": {
				"northeast": {
					"lat": 33.923418,
					"lng": -118.1799621
				},
				"southwest": {
					"lat": 33.863086,
					"lng": -118.2636591
				}
			}
		},
		"place_id": "ChIJTVsdf2vLwoARQstbkZrOawU",
		"types": ["locality", "political"]
	}],
	"status": "OK"
}, {
	"results": [{
		"address_components": [{
			"long_name": "Melbourne",
			"short_name": "Melbourne",
			"types": ["colloquial_area", "locality", "political"]
		}, {
			"long_name": "Victoria",
			"short_name": "VIC",
			"types": ["administrative_area_level_1", "political"]
		}, {
			"long_name": "Australia",
			"short_name": "AU",
			"types": ["country", "political"]
		}],
		"formatted_address": "Melbourne VIC, Australia",
		"geometry": {
			"bounds": {
				"northeast": {
					"lat": -37.4598457,
					"lng": 145.76474
				},
				"southwest": {
					"lat": -38.2607199,
					"lng": 144.3944921
				}
			},
			"location": {
				"lat": -37.814107,
				"lng": 144.96328
			},
			"location_type": "APPROXIMATE",
			"viewport": {
				"northeast": {
					"lat": -37.4598457,
					"lng": 145.76474
				},
				"southwest": {
					"lat": -38.2607199,
					"lng": 144.3944921
				}
			}
		},
		"place_id": "ChIJ90260rVG1moRkM2MIXVWBAQ",
		"types": ["colloquial_area", "locality", "political"]
	}, {
		"address_components": [{
			"long_name": "Melbourne",
			"short_name": "Melbourne",
			"types": ["locality", "political"]
		}, {
			"long_name": "Victoria",
			"short_name": "VIC",
			"types": ["administrative_area_level_1", "political"]
		}, {
			"long_name": "Australia",
			"short_name": "AU",
			"types": ["country", "political"]
		}],
		"formatted_address": "Melbourne VIC, Australia",
		"geometry": {
			"bounds": {
				"northeast": {
					"lat": -37.7994893,
					"lng": 144.9890618
				},
				"southwest": {
					"lat": -37.8546255,
					"lng": 144.9514222
				}
			},
			"location": {
				"lat": -37.8142155,
				"lng": 144.9632307
			},
			"location_type": "APPROXIMATE",
			"viewport": {
				"northeast": {
					"lat": -37.7994893,
					"lng": 144.9890618
				},
				"southwest": {
					"lat": -37.8546255,
					"lng": 144.9514222
				}
			}
		},
		"place_id": "ChIJgf0RD69C1moR4OeMIXVWBAU",
		"types": ["locality", "political"]
	}],
	"status": "OK"
}, {
	"results": [{
		"address_components": [{
			"long_name": "Gweedore",
			"short_name": "Gweedore",
			"types": ["locality", "political"]
		}, {
			"long_name": "County Donegal",
			"short_name": "County Donegal",
			"types": ["administrative_area_level_2", "political"]
		}, {
			"long_name": "Donegal",
			"short_name": "Donegal",
			"types": ["administrative_area_level_1", "political"]
		}, {
			"long_name": "Ireland",
			"short_name": "IE",
			"types": ["country", "political"]
		}],
		"formatted_address": "Gweedore, Co. Donegal, Ireland",
		"geometry": {
			"location": {
				"lat": 55.0498014,
				"lng": -8.228704
			},
			"location_type": "APPROXIMATE",
			"viewport": {
				"northeast": {
					"lat": 55.0561929,
					"lng": -8.2126966
				},
				"southwest": {
					"lat": 55.0434089,
					"lng": -8.2447114
				}
			}
		},
		"place_id": "ChIJrQE7wKGCX0gRbARO9zcYvbk",
		"types": ["locality", "political"]
	}],
	"status": "OK"
}, {
	"results": [{
		"address_components": [{
			"long_name": "Newnan",
			"short_name": "Newnan",
			"types": ["locality", "political"]
		}, {
			"long_name": "Coweta County",
			"short_name": "Coweta County",
			"types": ["administrative_area_level_2", "political"]
		}, {
			"long_name": "Georgia",
			"short_name": "GA",
			"types": ["administrative_area_level_1", "political"]
		}, {
			"long_name": "United States",
			"short_name": "US",
			"types": ["country", "political"]
		}],
		"formatted_address": "Newnan, GA, USA",
		"geometry": {
			"bounds": {
				"northeast": {
					"lat": 33.4157808,
					"lng": -84.6935219
				},
				"southwest": {
					"lat": 33.3397199,
					"lng": -84.8327
				}
			},
			"location": {
				"lat": 33.3806716,
				"lng": -84.79965729999999
			},
			"location_type": "APPROXIMATE",
			"viewport": {
				"northeast": {
					"lat": 33.4157808,
					"lng": -84.6935219
				},
				"southwest": {
					"lat": 33.3397199,
					"lng": -84.8327
				}
			}
		},
		"place_id": "ChIJuTrFTSrG9IgRyw4kYNqd6vQ",
		"types": ["locality", "political"]
	}],
	"status": "OK"
}, {
	"results": [{
		"address_components": [{
			"long_name": "Adelaide",
			"short_name": "Adelaide",
			"types": ["colloquial_area", "locality", "political"]
		}, {
			"long_name": "South Australia",
			"short_name": "SA",
			"types": ["administrative_area_level_1", "political"]
		}, {
			"long_name": "Australia",
			"short_name": "AU",
			"types": ["country", "political"]
		}],
		"formatted_address": "Adelaide SA, Australia",
		"geometry": {
			"bounds": {
				"northeast": {
					"lat": -34.5078718,
					"lng": 139.0435642
				},
				"southwest": {
					"lat": -35.4640587,
					"lng": 138.3603457
				}
			},
			"location": {
				"lat": -34.92862119999999,
				"lng": 138.5999594
			},
			"location_type": "APPROXIMATE",
			"viewport": {
				"northeast": {
					"lat": -34.5078718,
					"lng": 139.0435642
				},
				"southwest": {
					"lat": -35.4640587,
					"lng": 138.3603457
				}
			}
		},
		"place_id": "ChIJP7Mmxcc1t2oRQMaOYlQ2AwQ",
		"types": ["colloquial_area", "locality", "political"]
	}, {
		"address_components": [{
			"long_name": "Adelaide",
			"short_name": "Adelaide",
			"types": ["locality", "political"]
		}, {
			"long_name": "South Australia",
			"short_name": "SA",
			"types": ["administrative_area_level_1", "political"]
		}, {
			"long_name": "Australia",
			"short_name": "AU",
			"types": ["country", "political"]
		}, {
			"long_name": "5000",
			"short_name": "5000",
			"types": ["postal_code"]
		}],
		"formatted_address": "Adelaide SA 5000, Australia",
		"geometry": {
			"bounds": {
				"northeast": {
					"lat": -34.9092516,
					"lng": 138.6245149
				},
				"southwest": {
					"lat": -34.9421664,
					"lng": 138.5771082
				}
			},
			"location": {
				"lat": -34.9285894,
				"lng": 138.5999429
			},
			"location_type": "APPROXIMATE",
			"viewport": {
				"northeast": {
					"lat": -34.9092516,
					"lng": 138.6245149
				},
				"southwest": {
					"lat": -34.9421664,
					"lng": 138.5771082
				}
			}
		},
		"place_id": "ChIJ56QDo9fOsGoRUz4cTlhwjbM",
		"types": ["locality", "political"]
	}],
	"status": "OK"
}, {
	"results": [{
		"address_components": [{
			"long_name": "Dumfries",
			"short_name": "Dumfries",
			"types": ["locality", "political"]
		}, {
			"long_name": "Dumfries",
			"short_name": "Dumfries",
			"types": ["postal_town"]
		}, {
			"long_name": "Dumfries and Galloway",
			"short_name": "D & G",
			"types": ["administrative_area_level_2", "political"]
		}, {
			"long_name": "Scotland",
			"short_name": "Scotland",
			"types": ["administrative_area_level_1", "political"]
		}, {
			"long_name": "United Kingdom",
			"short_name": "GB",
			"types": ["country", "political"]
		}],
		"formatted_address": "Dumfries, Dumfries, Dumfries and Galloway, UK",
		"geometry": {
			"bounds": {
				"northeast": {
					"lat": 55.0942477,
					"lng": -3.5622079
				},
				"southwest": {
					"lat": 55.0415437,
					"lng": -3.6594178
				}
			},
			"location": {
				"lat": 55.070859,
				"lng": -3.60512
			},
			"location_type": "APPROXIMATE",
			"viewport": {
				"northeast": {
					"lat": 55.0942477,
					"lng": -3.5622079
				},
				"southwest": {
					"lat": 55.0415437,
					"lng": -3.6594178
				}
			}
		},
		"place_id": "ChIJ05HhopiwYkgRqeKyMsly7fY",
		"types": ["locality", "political"]
	}],
	"status": "OK"
}, {
	"results": [{
		"address_components": [{
			"long_name": "Virginia Beach",
			"short_name": "Virginia Beach",
			"types": ["locality", "political"]
		}, {
			"long_name": "Virginia",
			"short_name": "VA",
			"types": ["administrative_area_level_1", "political"]
		}, {
			"long_name": "United States",
			"short_name": "US",
			"types": ["country", "political"]
		}],
		"formatted_address": "Virginia Beach, VA, USA",
		"geometry": {
			"bounds": {
				"northeast": {
					"lat": 36.9845247,
					"lng": -75.86758189999999
				},
				"southwest": {
					"lat": 36.550453,
					"lng": -76.2277477
				}
			},
			"location": {
				"lat": 36.8529263,
				"lng": -75.97798499999999
			},
			"location_type": "APPROXIMATE",
			"viewport": {
				"northeast": {
					"lat": 36.9845204,
					"lng": -75.86758189999999
				},
				"southwest": {
					"lat": 36.550453,
					"lng": -76.2277477
				}
			}
		},
		"place_id": "ChIJpycV_OjBuokRcwEuo4AQFgQ",
		"types": ["locality", "political"]
	}],
	"status": "OK"
}, {
	"results": [{
		"address_components": [{
			"long_name": "Oslo",
			"short_name": "Oslo",
			"types": ["locality", "political"]
		}, {
			"long_name": "Oslo",
			"short_name": "Oslo",
			"types": ["administrative_area_level_1", "political"]
		}, {
			"long_name": "Norway",
			"short_name": "NO",
			"types": ["country", "political"]
		}],
		"formatted_address": "Oslo, Norway",
		"geometry": {
			"bounds": {
				"northeast": {
					"lat": 59.978035,
					"lng": 10.9476642
				},
				"southwest": {
					"lat": 59.8096749,
					"lng": 10.6225688
				}
			},
			"location": {
				"lat": 59.9138688,
				"lng": 10.7522454
			},
			"location_type": "APPROXIMATE",
			"viewport": {
				"northeast": {
					"lat": 59.978035,
					"lng": 10.9476642
				},
				"southwest": {
					"lat": 59.8096749,
					"lng": 10.6225688
				}
			}
		},
		"place_id": "ChIJOfBn8mFuQUYRmh4j019gkn4",
		"types": ["locality", "political"]
	}],
	"status": "OK"
}]